<?xml version="1.0" encoding="UTF-8"?>
<locations>
  <location>
    <deal_id></deal_id>
    <shop_id>5D105F7B1A29ACE3</shop_id>
    <address>杭州江干区钱江新城富春路701号(江锦路民心路口)</address>
    <latitude>30.251492948682</latitude>
    <longitude>120.21538686752</longitude>
    <campus>华家池</campus>
    <city>杭州</city>
  </location>
  <location>
    <deal_id></deal_id>
    <shop_id>CB94EAB7E7366C7A</shop_id>
    <address>东坡路10号(近平海路)  </address>
    <latitude>30.252389907837</latitude>
    <longitude>120.16325378418</longitude>
    <campus>华家池</campus>
    <city>杭州</city>
  </location>
  <location>
    <deal_id></deal_id>
    <shop_id>56ECFF7CFC86A2DC1E482F973EFA3D8F</shop_id>
    <address>杭州西湖区黄姑山路3-1号</address>
    <latitude>30.273256281166</latitude>
    <longitude>120.13365238043</longitude>
    <campus>西溪</campus>
    <city>杭州</city>
  </location>
  <location>
    <deal_id></deal_id>
    <shop_id>041C8576B223EAAEA016C90B5F3FDFB9</shop_id>
    <address>杭州市湖墅南路260号</address>
    <latitude>30.284889221191</latitude>
    <longitude>120.15159606934</longitude>
    <campus>西溪</campus>
    <city>杭州</city>
  </location>
  <location>
    <deal_id></deal_id>
    <shop_id>DB1A0D2B4BC8B7AE2C90EE06F990AEEF</shop_id>
    <address>古墩路文三西路口公交车站</address>
    <latitude>30.277283685293</latitude>
    <longitude>120.10064720254</longitude>
    <campus>玉泉</campus>
    <city>杭州</city>
  </location>
  <location>
    <deal_id></deal_id>
    <shop_id>08E1A3A5E450BA5D</shop_id>
    <address>中山北路310号中大广场五矿大厦北侧(近百井坊巷)  </address>
    <latitude>30.265480041504</latitude>
    <longitude>120.16919708252</longitude>
    <campus>华家池</campus>
    <city>杭州</city>
  </location>
  <location>
    <deal_id></deal_id>
    <shop_id>FE1C46FFC0BF8CD1EF2E3979C778E8D4</shop_id>
    <address>浙江省杭州市潮王路225号</address>
    <latitude>30.285424529977</latitude>
    <longitude>120.15237920797</longitude>
    <campus>西溪</campus>
    <city>杭州</city>
  </location>
  <location>
    <deal_id></deal_id>
    <shop_id>D8F681FF54CD375B5CB780D86E7DC09A</shop_id>
    <address>西湖区文一路学院路口(杭师大老校区门口)</address>
    <latitude>30.288061</latitude>
    <longitude>120.132225</longitude>
    <campus>西溪</campus>
    <city>杭州</city>
  </location>
  <location>
    <deal_id></deal_id>
    <shop_id>9172FD1930C36A65</shop_id>
    <address>湖墅南路信义坊商街2号  </address>
    <latitude>30.294219970703</latitude>
    <longitude>120.1464920044</longitude>
    <campus>西溪</campus>
    <city>杭州</city>
  </location>
  <location>
    <deal_id></deal_id>
    <shop_id>21CFCB2E10F77451A4B589EB0D1459BB</shop_id>
    <address>小河路桥西历史街区北，原大河造船厂</address>
    <latitude>30.325351752426</latitude>
    <longitude>120.13656488297</longitude>
    <campus>西溪</campus>
    <city>杭州</city>
  </location>
  <location>
    <deal_id></deal_id>
    <shop_id>48033939200D64</shop_id>
    <address>江干区文泽路99号福雷德广场内</address>
    <latitude>30.316493466768</latitude>
    <longitude>120.34799493002</longitude>
    <campus>华家池</campus>
    <city>杭州</city>
  </location>
  <location>
    <deal_id></deal_id>
    <shop_id>4E7BA251BD4B58BF95B19CDC24B86625</shop_id>
    <address>萧山区金城路333号</address>
    <latitude>30.18212</latitude>
    <longitude>120.253107</longitude>
    <campus>华家池</campus>
    <city>杭州</city>
  </location>
  <location>
    <deal_id></deal_id>
    <shop_id>CC0DD3D633D9A0E4</shop_id>
    <address>武林路291号日月光华商厦6楼(近狮虎桥路)  </address>
    <latitude>30.265539169311</latitude>
    <longitude>120.16046905518</longitude>
    <campus>西溪</campus>
    <city>杭州</city>
  </location>
  <location>
    <deal_id></deal_id>
    <shop_id>6A2CD115ADD83277</shop_id>
    <address>文三路535号菜茵达大厦3楼(万塘路口)  </address>
    <latitude>30.275550842285</latitude>
    <longitude>120.12429046631</longitude>
    <campus>西溪</campus>
    <city>杭州</city>
  </location>
  <location>
    <deal_id></deal_id>
    <shop_id>1320F175FB6250</shop_id>
    <address>临安锦城街道钱王街855号</address>
    <latitude>30.224327761726</latitude>
    <longitude>119.70542116274</longitude>
    <campus>紫金港</campus>
    <city>杭州</city>
  </location>
  <location>
    <deal_id></deal_id>
    <shop_id>366D829AD60EACA9E91AE1C27B04D258</shop_id>
    <address>杭州余杭区</address>
    <latitude>30.477620395476</latitude>
    <longitude>120.18385833183</longitude>
    <campus>紫金港</campus>
    <city>杭州</city>
  </location>
  <location>
    <deal_id></deal_id>
    <shop_id>4BA4B767D96A97</shop_id>
    <address>杭州西湖区古墩路658号富源商务酒店1楼(申花路口)</address>
    <latitude>30.306524147557</latitude>
    <longitude>120.09736784625</longitude>
    <campus>紫金港</campus>
    <city>杭州</city>
  </location>
  <location>
    <deal_id></deal_id>
    <shop_id>A98BCD67F37BFB</shop_id>
    <address>古墩路北端铭雅苑48-16</address>
    <latitude>30.338613159051</latitude>
    <longitude>120.08409138297</longitude>
    <campus>紫金港</campus>
    <city>杭州</city>
  </location>
  <location>
    <deal_id></deal_id>
    <shop_id>17F1940259C504A792BBE0B31379604D</shop_id>
    <address>滨江区春波路1576号乐通科技园</address>
    <latitude>30.190146632633</latitude>
    <longitude>120.19566591974</longitude>
    <campus>之江</campus>
    <city>杭州</city>
  </location>
  <location>
    <deal_id></deal_id>
    <shop_id>D1779BFA56ED9C00</shop_id>
    <address>杭州西湖区古墩路703号(申花路口,近浙大紫金港校区)</address>
    <latitude>30.307610317156</latitude>
    <longitude>120.09568738937</longitude>
    <campus>紫金港</campus>
    <city>杭州</city>
  </location>
  <location>
    <deal_id></deal_id>
    <shop_id>720633DED4BCE845</shop_id>
    <address>延安路595浙江大酒店27楼(近杭州大厦)  </address>
    <latitude>30.268409729004</latitude>
    <longitude>120.163230896</longitude>
    <campus>华家池</campus>
    <city>杭州</city>
  </location>
  <location>
    <deal_id></deal_id>
    <shop_id>D3411A98FEF60005</shop_id>
    <address>武林路291号日月光华商厦3楼(近狮虎桥路)  </address>
    <latitude>30.26549911499</latitude>
    <longitude>120.16053009033</longitude>
    <campus>西溪</campus>
    <city>杭州</city>
  </location>
  <location>
    <deal_id></deal_id>
    <shop_id>91AD2C083FBB9B48ACA39FE55FFA09C8</shop_id>
    <address>文晖路269号通盛嘉苑3幢西座</address>
    <latitude>30.278527960234</latitude>
    <longitude>120.16213784858</longitude>
    <campus>华家池</campus>
    <city>杭州</city>
  </location>
  <location>
    <deal_id></deal_id>
    <shop_id>48AB6B343CE9E925</shop_id>
    <address>新塘路33号  </address>
    <latitude>30.260059356689</latitude>
    <longitude>120.20713043213</longitude>
    <campus>华家池</campus>
    <city>杭州</city>
  </location>
  <location>
    <deal_id></deal_id>
    <shop_id>CD67DF3D76CFC71D</shop_id>
    <address>莫干山路188-200号  </address>
    <latitude>30.285079956055</latitude>
    <longitude>120.14778137207</longitude>
    <campus>西溪</campus>
    <city>杭州</city>
  </location>
  <location>
    <deal_id></deal_id>
    <shop_id>02A178A3907D810D</shop_id>
    <address>庆春路79号  </address>
    <latitude>30.257520675659</latitude>
    <longitude>120.17810821533</longitude>
    <campus>华家池</campus>
    <city>杭州</city>
  </location>
  <location>
    <deal_id></deal_id>
    <shop_id>42EFE51A805F33F0</shop_id>
    <address>栖霞岭紫云洞附近(近金鼓洞)  </address>
    <latitude>30.260259628296</latitude>
    <longitude>120.13832092285</longitude>
    <campus>西溪</campus>
    <city>杭州</city>
  </location>
  <location>
    <deal_id></deal_id>
    <shop_id>3E88614669DE27848DEE053B1F5E1BA3</shop_id>
    <address>杭州市上城区东坡路52号</address>
    <latitude>30.2559801</latitude>
    <longitude>120.1628375</longitude>
    <campus>华家池</campus>
    <city>杭州</city>
  </location>
  <location>
    <deal_id></deal_id>
    <shop_id>896CB9B27DF52271</shop_id>
    <address>秋涛路288号近江大厦1楼  </address>
    <latitude>30.237319946289</latitude>
    <longitude>120.19258117676</longitude>
    <campus>华家池</campus>
    <city>杭州</city>
  </location>
  <location>
    <deal_id></deal_id>
    <shop_id>6FE0952B0521E777</shop_id>
    <address>环城东路1号城站广场8号铁道大厦1-2楼(西湖大道口)  </address>
    <latitude>30.245300292969</latitude>
    <longitude>120.18177032471</longitude>
    <campus>华家池</campus>
    <city>杭州</city>
  </location>
  <location>
    <deal_id></deal_id>
    <shop_id>70B032CA349BA276</shop_id>
    <address>建国北路236号诚信大厦604室  </address>
    <latitude>30.263879776001</latitude>
    <longitude>120.18147277832</longitude>
    <campus>华家池</campus>
    <city>杭州</city>
  </location>
  <location>
    <deal_id></deal_id>
    <shop_id>AD596972A90D90959DFDFD65C7C05F2A</shop_id>
    <address>大兜路118号</address>
    <latitude>30.307169274089</latitude>
    <longitude>120.16960968799</longitude>
    <campus>华家池</campus>
    <city>杭州</city>
  </location>
  <location>
    <deal_id></deal_id>
    <shop_id>7274E60149FC6025</shop_id>
    <address>绍兴路168号和平大厦2楼  </address>
    <latitude>30.291389465332</latitude>
    <longitude>120.17475128174</longitude>
    <campus>华家池</campus>
    <city>杭州</city>
  </location>
  <location>
    <deal_id></deal_id>
    <shop_id>10AA779B411805CE</shop_id>
    <address>庆春路青春坊底楼1-2-1号  </address>
    <latitude>30.257900238037</latitude>
    <longitude>120.16356658935</longitude>
    <campus>华家池</campus>
    <city>杭州</city>
  </location>
  <location>
    <deal_id></deal_id>
    <shop_id>52280435F925D359</shop_id>
    <address>朝晖路198号杭苏饭店1-2楼  </address>
    <latitude>30.27638053894</latitude>
    <longitude>120.16837310791</longitude>
    <campus>华家池</campus>
    <city>杭州</city>
  </location>
  <location>
    <deal_id></deal_id>
    <shop_id>46CE2F168262C43F</shop_id>
    <address>体育场路261号世贸君亭酒店1楼  </address>
    <latitude>30.269020080566</latitude>
    <longitude>120.16941070557</longitude>
    <campus>华家池</campus>
    <city>杭州</city>
  </location>
  <location>
    <deal_id></deal_id>
    <shop_id>041C8576B223EAAEA016C90B5F3FDFB9</shop_id>
    <address>杭州市湖墅南路260号</address>
    <latitude>30.284889221191</latitude>
    <longitude>120.15159606934</longitude>
    <campus>西溪</campus>
    <city>杭州</city>
  </location>
  <location>
    <deal_id></deal_id>
    <shop_id>01DE156EC161F56B95B5E150FC919E56</shop_id>
    <address>大关苑路</address>
    <latitude>30.303674697876</latitude>
    <longitude>120.15850067139</longitude>
    <campus>西溪</campus>
    <city>杭州</city>
  </location>
  <location>
    <deal_id></deal_id>
    <shop_id>554FD3757F3315FC</shop_id>
    <address>杭州秋涛北路296号  </address>
    <latitude>30.285139083862</latitude>
    <longitude>120.19937896728</longitude>
    <campus>华家池</campus>
    <city>杭州</city>
  </location>
  <location>
    <deal_id></deal_id>
    <shop_id>91EE340BC012F6D1</shop_id>
    <address>庆春东路66号庆春发展大厦2楼  </address>
    <latitude>30.257440567017</latitude>
    <longitude>120.194190979</longitude>
    <campus>华家池</campus>
    <city>杭州</city>
  </location>
  <location>
    <deal_id></deal_id>
    <shop_id>783553385F58F73933D7A57671A2C506</shop_id>
    <address>杭州滨江区江南大道588号(江虹路口)</address>
    <latitude>30.202387065221</latitude>
    <longitude>120.20118744337</longitude>
    <campus>华家池</campus>
    <city>杭州</city>
  </location>
  <location>
    <deal_id></deal_id>
    <shop_id>0308B842AFDF1AFB</shop_id>
    <address>北山路28号西湖断桥旁(近断桥)  </address>
    <latitude>30.259090423584</latitude>
    <longitude>120.14984893799</longitude>
    <campus>西溪</campus>
    <city>杭州</city>
  </location>
  <location>
    <deal_id></deal_id>
    <shop_id>1C5BED8A8C36DD0C48FCC5C7538D260F</shop_id>
    <address>浙江省杭州市北山路78号</address>
    <latitude>30.254711</latitude>
    <longitude>120.140354</longitude>
    <campus>玉泉</campus>
    <city>杭州</city>
  </location>
  <location>
    <deal_id></deal_id>
    <shop_id>D38AA35D437F23956A0F622FC43954F9</shop_id>
    <address>西湖区黄龙路5号</address>
    <latitude>30.269223261929</latitude>
    <longitude>120.1355320655</longitude>
    <campus>西溪</campus>
    <city>杭州</city>
  </location>
  <location>
    <deal_id></deal_id>
    <shop_id>4335D7F009B9273F</shop_id>
    <address>文一路272号(近梁山大酒店)  </address>
    <latitude>30.287849426269</latitude>
    <longitude>120.12528991699</longitude>
    <campus>西溪</campus>
    <city>杭州</city>
  </location>
  <location>
    <deal_id></deal_id>
    <shop_id>9616AE814C0D725A6B9E1FC568048D58</shop_id>
    <address>杭州市西湖区古墩路387号</address>
    <latitude>30.28175</latitude>
    <longitude>120.099062</longitude>
    <campus>玉泉</campus>
    <city>杭州</city>
  </location>
  <location>
    <deal_id></deal_id>
    <shop_id>F0148580C8CC03</shop_id>
    <address>杭州市保俶路238号</address>
    <latitude>30.271591510646</latitude>
    <longitude>120.14597488297</longitude>
    <campus>西溪</campus>
    <city>杭州</city>
  </location>
  <location>
    <deal_id></deal_id>
    <shop_id>34C92847A7134D3843426E81AAD37267</shop_id>
    <address>教工路195号</address>
    <latitude>30.289895</latitude>
    <longitude>120.134997</longitude>
    <campus>西溪</campus>
    <city>杭州</city>
  </location>
  <location>
    <deal_id></deal_id>
    <shop_id>2A0F9F2CD9BA7007</shop_id>
    <address>下沙经济技术开发区四号大街15-2号内裙房东侧1-4号  </address>
    <latitude>30.306449890137</latitude>
    <longitude>120.34741973877</longitude>
    <campus>华家池</campus>
    <city>杭州</city>
  </location>
  <location>
    <deal_id></deal_id>
    <shop_id>DDFFF143A75E43</shop_id>
    <address>市心中路288号</address>
    <latitude>30.171948175437</latitude>
    <longitude>120.26902692464</longitude>
    <campus>华家池</campus>
    <city>杭州</city>
  </location>
  <location>
    <deal_id></deal_id>
    <shop_id>61F1A1AAA4E8C12CC8D07E148384C010</shop_id>
    <address>杭州古墩路656号</address>
    <latitude>30.305131406541</latitude>
    <longitude>120.09765840971</longitude>
    <campus>紫金港</campus>
    <city>杭州</city>
  </location>
  <location>
    <deal_id></deal_id>
    <shop_id>6054D3A92BDF030F</shop_id>
    <address>凯旋路431号(近杭州大厦)  </address>
    <latitude>30.272720336914</latitude>
    <longitude>120.19090270996</longitude>
    <campus>华家池</campus>
    <city>杭州</city>
  </location>
  <location>
    <deal_id></deal_id>
    <shop_id>72D2A0330D1242C3</shop_id>
    <address>萧山区萧绍路8-10号丽都花园510号  </address>
    <latitude>30.164100646973</latitude>
    <longitude>120.27317810059</longitude>
    <campus>华家池</campus>
    <city>杭州</city>
  </location>
  <location>
    <deal_id></deal_id>
    <shop_id>125CFAD6B06B8C84</shop_id>
    <address>建国北路285号双牛大大厦2楼(凤起路口)  </address>
    <latitude>30.26362991333</latitude>
    <longitude>120.18083953857</longitude>
    <campus>华家池</campus>
    <city>杭州</city>
  </location>
  <location>
    <deal_id></deal_id>
    <shop_id>3DD88CA1625948CD</shop_id>
    <address>东坡路8号3楼(近邮电路)  </address>
    <latitude>30.251470565796</latitude>
    <longitude>120.16349029541</longitude>
    <campus>华家池</campus>
    <city>杭州</city>
  </location>
  <location>
    <deal_id></deal_id>
    <shop_id>3EC52BCF50B539E8E0B4D8CA87039998</shop_id>
    <address>文二路391号</address>
    <latitude>30.28145980835</latitude>
    <longitude>120.12003326416</longitude>
    <campus>西溪</campus>
    <city>杭州</city>
  </location>
  <location>
    <deal_id></deal_id>
    <shop_id>9AF66BAF936A8AF0</shop_id>
    <address>延安路101号百井坊巷  </address>
    <latitude>30.265979766846</latitude>
    <longitude>120.16419219971</longitude>
    <campus>华家池</campus>
    <city>杭州</city>
  </location>
  <location>
    <deal_id></deal_id>
    <shop_id>3EACF9C3CD2FEBD14019EBCB7D2BD01B</shop_id>
    <address>拱墅区上塘路386号</address>
    <latitude>30.298417945825</latitude>
    <longitude>120.15653914858</longitude>
    <campus>西溪</campus>
    <city>杭州</city>
  </location>
  <location>
    <deal_id></deal_id>
    <shop_id>BBAB65CE6FABEA9D</shop_id>
    <address>双菱路46号(近太平门直街)  </address>
    <latitude>30.254829406738</latitude>
    <longitude>120.19625854492</longitude>
    <campus>华家池</campus>
    <city>杭州</city>
  </location>
  <location>
    <deal_id></deal_id>
    <shop_id>31C39D1BA2C635E0</shop_id>
    <address>杭州文二西路7-1号</address>
    <latitude>30.2820869</latitude>
    <longitude>120.1170645</longitude>
    <campus>玉泉</campus>
    <city>杭州</city>
  </location>
  <location>
    <deal_id></deal_id>
    <shop_id>EDB0078FEBD29BAD</shop_id>
    <address>庆春东路25号(近秋涛路)  </address>
    <latitude>30.25737953186</latitude>
    <longitude>120.19931793213</longitude>
    <campus>华家池</campus>
    <city>杭州</city>
  </location>
  <location>
    <deal_id></deal_id>
    <shop_id>80C1E2AC11F1084F</shop_id>
    <address>湖墅南路375号(近夹城巷路)  </address>
    <latitude>30.28830909729</latitude>
    <longitude>120.15061187744</longitude>
    <campus>西溪</campus>
    <city>杭州</city>
  </location>
  <location>
    <deal_id></deal_id>
    <shop_id>096B7EC0ABBFE8D91604BEB49856BCA7</shop_id>
    <address>浙江省杭州市下城区建国北路</address>
    <latitude>30.264417615921</latitude>
    <longitude>120.18460584858</longitude>
    <campus>华家池</campus>
    <city>杭州</city>
  </location>
  <location>
    <deal_id></deal_id>
    <shop_id>44B6853FBF503AA5</shop_id>
    <address>登云路240号(近和睦新村)  </address>
    <latitude>30.308010101318</latitude>
    <longitude>120.12648773193</longitude>
    <campus>西溪</campus>
    <city>杭州</city>
  </location>
  <location>
    <deal_id></deal_id>
    <shop_id>0EA9550078BD4DBA</shop_id>
    <address>文一西路159号(近竞舟路)  </address>
    <latitude>30.286159515381</latitude>
    <longitude>120.10600280762</longitude>
    <campus>玉泉</campus>
    <city>杭州</city>
  </location>
  <location>
    <deal_id></deal_id>
    <shop_id>DB1A0D2B4BC8B7AE2C90EE06F990AEEF</shop_id>
    <address>古墩路文三西路口公交车站</address>
    <latitude>30.277283685293</latitude>
    <longitude>120.10064720254</longitude>
    <campus>玉泉</campus>
    <city>杭州</city>
  </location>
  <location>
    <deal_id></deal_id>
    <shop_id>654B124E002FF576</shop_id>
    <address>香积寺路71-2号(再行路口)  </address>
    <latitude>30.306999206543</latitude>
    <longitude>120.17057800293</longitude>
    <campus>华家池</campus>
    <city>杭州</city>
  </location>
  <location>
    <deal_id></deal_id>
    <shop_id>EBB8015BF6279ACB22EE8FA0173E6F4E</shop_id>
    <address>杭州市体育场路178 号</address>
    <latitude>30.271495818621</latitude>
    <longitude>120.17153619858</longitude>
    <campus>华家池</campus>
    <city>杭州</city>
  </location>
  <location>
    <deal_id></deal_id>
    <shop_id>898F08BDA8C398A1</shop_id>
    <address>清泰街378号  </address>
    <latitude>30.247140884399</latitude>
    <longitude>120.17727661133</longitude>
    <campus>华家池</campus>
    <city>杭州</city>
  </location>
  <location>
    <deal_id></deal_id>
    <shop_id>3B41DC5BA0CC7ADBD8F7DCAAFA97BC53</shop_id>
    <address>杭州河滨乐购门口和对面</address>
    <latitude>30.2692357335</latitude>
    <longitude>120.180942849</longitude>
    <campus>华家池</campus>
    <city>杭州</city>
  </location>
  <location>
    <deal_id></deal_id>
    <shop_id>8BEE5F99156CC6BDFD206AC0FE7078F2</shop_id>
    <address>杭州西湖区杭大路40-1号(西溪路口东北角)</address>
    <latitude>30.2702431</latitude>
    <longitude>120.1411518</longitude>
    <campus>西溪</campus>
    <city>杭州</city>
  </location>
  <location>
    <deal_id></deal_id>
    <shop_id>2A20382BFDF27CC4</shop_id>
    <address>保俶路170号(近西溪路)  </address>
    <latitude>30.268030166626</latitude>
    <longitude>120.14726257324</longitude>
    <campus>西溪</campus>
    <city>杭州</city>
  </location>
  <location>
    <deal_id></deal_id>
    <shop_id>A366DC81FDB5E6F8</shop_id>
    <address>太平门直街146号(双菱路口)  </address>
    <latitude>30.259460449219</latitude>
    <longitude>120.19635009766</longitude>
    <campus>华家池</campus>
    <city>杭州</city>
  </location>
  <location>
    <deal_id></deal_id>
    <shop_id>F40B73462590FDF0</shop_id>
    <address>武林路510号(近武林小广场)  </address>
    <latitude>30.272060394287</latitude>
    <longitude>120.15808868408</longitude>
    <campus>西溪</campus>
    <city>杭州</city>
  </location>
  <location>
    <deal_id></deal_id>
    <shop_id>DD05CFC18DB2E115</shop_id>
    <address>艮山西路(近凯旋路)  </address>
    <latitude>30.275030136108</latitude>
    <longitude>120.19214630127</longitude>
    <campus>华家池</campus>
    <city>杭州</city>
  </location>
  <location>
    <deal_id></deal_id>
    <shop_id>31B0D6407D16A8F070EDEA5E49A7ED87</shop_id>
    <address>上城区近江南路80号</address>
    <latitude>30.227611328644</latitude>
    <longitude>120.20053719974</longitude>
    <campus>华家池</campus>
    <city>杭州</city>
  </location>
  <location>
    <deal_id></deal_id>
    <shop_id>0567B2282581E047B1419C70B0159BD6</shop_id>
    <address>浙江省杭州市萧山区萧然南路411号</address>
    <latitude>30.152398695363</latitude>
    <longitude>120.27264192464</longitude>
    <campus>华家池</campus>
    <city>杭州</city>
  </location>
  <location>
    <deal_id></deal_id>
    <shop_id>920D9CAC65F126798530BD32F1CEF1A5</shop_id>
    <address>莫干山路111号</address>
    <latitude>30.275075</latitude>
    <longitude>120.152921</longitude>
    <campus>西溪</campus>
    <city>杭州</city>
  </location>
  <location>
    <deal_id></deal_id>
    <shop_id>94526CEC8D32E0</shop_id>
    <address>下城区刀茅巷珠碧二弄4号</address>
    <latitude>30.262432087138</latitude>
    <longitude>120.18390811133</longitude>
    <campus>华家池</campus>
    <city>杭州</city>
  </location>
  <location>
    <deal_id></deal_id>
    <shop_id>D3B6600E767A5225</shop_id>
    <address>孩儿巷141号(近延安路)  </address>
    <latitude>30.261940002441</latitude>
    <longitude>120.16555786133</longitude>
    <campus>华家池</campus>
    <city>杭州</city>
  </location>
  <location>
    <deal_id></deal_id>
    <shop_id>DA373C8D91D89F11</shop_id>
    <address>环城西路26号(青少年宫对面)  </address>
    <latitude>30.261560440064</latitude>
    <longitude>120.15830230713</longitude>
    <campus>西溪</campus>
    <city>杭州</city>
  </location>
  <location>
    <deal_id></deal_id>
    <shop_id>B06236A0E53CA4A6</shop_id>
    <address>马塍路12号(近文三路)  </address>
    <latitude>30.276300430298</latitude>
    <longitude>120.14832305908</longitude>
    <campus>西溪</campus>
    <city>杭州</city>
  </location>
  <location>
    <deal_id></deal_id>
    <shop_id>207634B7791FF158</shop_id>
    <address>屏风街38号(近中大广场)  </address>
    <latitude>30.266750335693</latitude>
    <longitude>120.16793060303</longitude>
    <campus>华家池</campus>
    <city>杭州</city>
  </location>
  <location>
    <deal_id></deal_id>
    <shop_id>EFCF2151AD3A5EE73966E5B892533985</shop_id>
    <address>杭州凤起路延安路口</address>
    <latitude>30.263934886312</latitude>
    <longitude>120.16357898712</longitude>
    <campus>华家池</campus>
    <city>杭州</city>
  </location>
  <location>
    <deal_id></deal_id>
    <shop_id>B34B04DF6FEE2A29</shop_id>
    <address>延安路346号米兰假日酒店2楼(近Me&amp;city )</address>
    <latitude>30.26038851545</latitude>
    <longitude>120.16404724122</longitude>
    <campus>华家池</campus>
    <city>杭州</city>
  </location>
  <location>
    <deal_id></deal_id>
    <shop_id>69BCB811E578ABBEE471C44B57E2ED15</shop_id>
    <address>浙江杭州西湖区文一路254号</address>
    <latitude>30.287790298462</latitude>
    <longitude>120.1276473999</longitude>
    <campus>西溪</campus>
    <city>杭州</city>
  </location>
  <location>
    <deal_id></deal_id>
    <shop_id>9602CB5DF45FEB75E1E1929BC7A9D592</shop_id>
    <address>杭州高沙学林街1096号</address>
    <latitude>30.3158778523</latitude>
    <longitude>120.338744097</longitude>
    <campus>华家池</campus>
    <city>杭州</city>
  </location>
  <location>
    <deal_id></deal_id>
    <shop_id>CAB220792C6E7E</shop_id>
    <address>双菱路116号瑞嘉酒店二楼(太平门直街路口)</address>
    <latitude>30.259608498605</latitude>
    <longitude>120.19541094858</longitude>
    <campus>华家池</campus>
    <city>杭州</city>
  </location>
  <location>
    <deal_id></deal_id>
    <shop_id>9299596D70E05FE324AC8ADA1800E79B</shop_id>
    <address>中河高架</address>
    <latitude>30.24285697937</latitude>
    <longitude>120.17183685303</longitude>
    <campus>华家池</campus>
    <city>杭州</city>
  </location>
  <location>
    <deal_id></deal_id>
    <shop_id>907C9AF1A48186FF</shop_id>
    <address>古墩路588号(近余杭塘路)  </address>
    <latitude>30.293590545654</latitude>
    <longitude>120.09853363037</longitude>
    <campus>紫金港</campus>
    <city>杭州</city>
  </location>
  <location>
    <deal_id></deal_id>
    <shop_id>9DD17ED51184C382</shop_id>
    <address>杭州景昙路18-26号(近乐购庆春店)</address>
    <latitude>30.259926687994</latitude>
    <longitude>120.20533847809</longitude>
    <campus>华家池</campus>
    <city>杭州</city>
  </location>
  <location>
    <deal_id></deal_id>
    <shop_id>EF1A86EA78E047B5</shop_id>
    <address>解放路251号(近湖滨路)  </address>
    <latitude>30.249780654907</latitude>
    <longitude>120.16577148438</longitude>
    <campus>华家池</campus>
    <city>杭州</city>
  </location>
  <location>
    <deal_id></deal_id>
    <shop_id>E543BED29E8EF2</shop_id>
    <address>临安锦城街道钱王街855号</address>
    <latitude>30.234600024175</latitude>
    <longitude>119.73157716273</longitude>
    <campus>紫金港</campus>
    <city>杭州</city>
  </location>
  <location>
    <deal_id></deal_id>
    <shop_id>751C8E874DBA21A8</shop_id>
    <address>杭州延安南路98号(定安路口)</address>
    <latitude>30.244064839117</latitude>
    <longitude>120.16478335582</longitude>
    <campus>华家池</campus>
    <city>杭州</city>
  </location>
  <location>
    <deal_id></deal_id>
    <shop_id>A14866E3A94BB1</shop_id>
    <address>下城区东新路155号和平广场世纪联华1楼</address>
    <latitude>30.290417354824</latitude>
    <longitude>120.17694748825</longitude>
    <campus>华家池</campus>
    <city>杭州</city>
  </location>
  <location>
    <deal_id></deal_id>
    <shop_id>F51EAA422349469C7222DE9AEF86E3B2</shop_id>
    <address>浙江省杭州市桐庐县迎春南路</address>
    <latitude>29.800294343612</latitude>
    <longitude>119.69466597623</longitude>
    <campus>之江</campus>
    <city>杭州</city>
  </location>
  <location>
    <deal_id></deal_id>
    <shop_id>3F96DCBE2BBA2F93</shop_id>
    <address>莫干山路  </address>
    <latitude>30.293529510498</latitude>
    <longitude>120.14234924316</longitude>
    <campus>西溪</campus>
    <city>杭州</city>
  </location>
  <location>
    <deal_id></deal_id>
    <shop_id>D27A89FD24AFFE</shop_id>
    <address>天城路197号</address>
    <latitude>30.341323494297</latitude>
    <longitude>120.18800384858</longitude>
    <campus>华家池</campus>
    <city>杭州</city>
  </location>
  <location>
    <deal_id></deal_id>
    <shop_id>783D8403C0F03234</shop_id>
    <address>杭州武林广场1号(近体育场路)  </address>
    <latitude>30.271770477295</latitude>
    <longitude>120.16179656982</longitude>
    <campus>华家池</campus>
    <city>杭州</city>
  </location>
  <location>
    <deal_id></deal_id>
    <shop_id>EFCF2151AD3A5EE73966E5B892533985</shop_id>
    <address>杭州凤起路延安路口</address>
    <latitude>30.263934886312</latitude>
    <longitude>120.16357898712</longitude>
    <campus>华家池</campus>
    <city>杭州</city>
  </location>
  <location>
    <deal_id></deal_id>
    <shop_id>D27A89FD24AFFE</shop_id>
    <address>天城路197号</address>
    <latitude>30.341323494297</latitude>
    <longitude>120.18800384858</longitude>
    <campus>华家池</campus>
    <city>杭州</city>
  </location>
  <location>
    <deal_id></deal_id>
    <shop_id>8857503976772803342</shop_id>
    <address>上城区吴山广场</address>
    <latitude>30.239956587413</latitude>
    <longitude>120.16722002456</longitude>
    <campus>华家池</campus>
    <city>杭州</city>
  </location>
  <location>
    <deal_id></deal_id>
    <shop_id>1FAAC088EE29B234</shop_id>
    <address>老浙大横路31号(近庆春路横河公园)  </address>
    <latitude>30.254119873047</latitude>
    <longitude>120.18447113037</longitude>
    <campus>华家池</campus>
    <city>杭州</city>
  </location>
  <location>
    <deal_id></deal_id>
    <shop_id>9AF66BAF936A8AF0</shop_id>
    <address>延安路101号百井坊巷  </address>
    <latitude>30.265979766846</latitude>
    <longitude>120.16419219971</longitude>
    <campus>华家池</campus>
    <city>杭州</city>
  </location>
  <location>
    <deal_id></deal_id>
    <shop_id>3EACF9C3CD2FEBD14019EBCB7D2BD01B</shop_id>
    <address>拱墅区上塘路386号</address>
    <latitude>30.298417945825</latitude>
    <longitude>120.15653914858</longitude>
    <campus>西溪</campus>
    <city>杭州</city>
  </location>
  <location>
    <deal_id></deal_id>
    <shop_id>BBAB65CE6FABEA9D</shop_id>
    <address>双菱路46号(近太平门直街)  </address>
    <latitude>30.254829406738</latitude>
    <longitude>120.19625854492</longitude>
    <campus>华家池</campus>
    <city>杭州</city>
  </location>
  <location>
    <deal_id></deal_id>
    <shop_id>31C39D1BA2C635E0</shop_id>
    <address>杭州文二西路7-1号</address>
    <latitude>30.2820869</latitude>
    <longitude>120.1170645</longitude>
    <campus>玉泉</campus>
    <city>杭州</city>
  </location>
  <location>
    <deal_id></deal_id>
    <shop_id>A4240FA37174F204DB74D0D5605FEF10</shop_id>
    <address>黄姑山路</address>
    <latitude>30.27709863776</latitude>
    <longitude>120.13503988297</longitude>
    <campus>西溪</campus>
    <city>杭州</city>
  </location>
  <location>
    <deal_id></deal_id>
    <shop_id>D9070DAC07C62D36</shop_id>
    <address>杭州双菱路102号(张生记大酒店正对面)  </address>
    <latitude>30.258310317993</latitude>
    <longitude>120.19613647461</longitude>
    <campus>华家池</campus>
    <city>杭州</city>
  </location>
  <location>
    <deal_id></deal_id>
    <shop_id>477FAF9B9D2AE8BF228EFC07C060CA49</shop_id>
    <address>浙江省杭州市西湖区丰潭路</address>
    <latitude>30.291507970453</latitude>
    <longitude>120.10682388297</longitude>
    <campus>紫金港</campus>
    <city>杭州</city>
  </location>
  <location>
    <deal_id></deal_id>
    <shop_id>509FF2BB47A44050</shop_id>
    <address>杭州平海路124号(近东坡路)  </address>
    <latitude>30.253589630127</latitude>
    <longitude>120.1626663208</longitude>
    <campus>华家池</campus>
    <city>杭州</city>
  </location>
  <location>
    <deal_id></deal_id>
    <shop_id>E1BBE7B51EB8FE7B</shop_id>
    <address>高银街53-57号(近河坊街)  </address>
    <latitude>30.240110397339</latitude>
    <longitude>120.17092895508</longitude>
    <campus>华家池</campus>
    <city>杭州</city>
  </location>
  <location>
    <deal_id></deal_id>
    <shop_id>146ADB0755B0F3F2</shop_id>
    <address>河坊街101-103号(中山中路口)  </address>
    <latitude>30.240209579468</latitude>
    <longitude>120.17053985596</longitude>
    <campus>华家池</campus>
    <city>杭州</city>
  </location>
  <location>
    <deal_id></deal_id>
    <shop_id>C94EC81EC4BACA</shop_id>
    <address>杭州市西湖区万塘路292号</address>
    <latitude>30.279112684253</latitude>
    <longitude>120.12526288297</longitude>
    <campus>西溪</campus>
    <city>杭州</city>
  </location>
  <location>
    <deal_id></deal_id>
    <shop_id>56ECFF7CFC86A2DC1E482F973EFA3D8F</shop_id>
    <address>杭州西湖区黄姑山路3-1号</address>
    <latitude>30.273256281166</latitude>
    <longitude>120.13365238043</longitude>
    <campus>西溪</campus>
    <city>杭州</city>
  </location>
  <location>
    <deal_id></deal_id>
    <shop_id>CFA5D86D1892419DB24756E0B9C25521</shop_id>
    <address>杭州古水路1号</address>
    <latitude>30.295043353596</latitude>
    <longitude>120.15865623951</longitude>
    <campus>西溪</campus>
    <city>杭州</city>
  </location>
  <location>
    <deal_id></deal_id>
    <shop_id>22D2A0EB78EBDC</shop_id>
    <address>莲花街333号</address>
    <latitude>30.271584110475</latitude>
    <longitude>120.10279168297</longitude>
    <campus>玉泉</campus>
    <city>杭州</city>
  </location>
  <location>
    <deal_id></deal_id>
    <shop_id>53937D6AB86C5DA65D240A1C7226EB1C</shop_id>
    <address>高银街79号</address>
    <latitude>30.242311808351</latitude>
    <longitude>120.17127411974</longitude>
    <campus>华家池</campus>
    <city>上海</city>
  </location>
  <location>
    <deal_id></deal_id>
    <shop_id>53937D6AB86C5DA65D240A1C7226EB1C</shop_id>
    <address>高银街79号</address>
    <latitude>30.242311808351</latitude>
    <longitude>120.17127411974</longitude>
    <campus>华家池</campus>
    <city>上海</city>
  </location>
  <location>
    <deal_id></deal_id>
    <shop_id>25C749066906337B</shop_id>
    <address>解放路211号  </address>
    <latitude>30.249839782715</latitude>
    <longitude>120.16590118408</longitude>
    <campus>华家池</campus>
    <city>杭州</city>
  </location>
  <location>
    <deal_id></deal_id>
    <shop_id>4E7BA251BD4B58BF95B19CDC24B86625</shop_id>
    <address>萧山区金城路333号</address>
    <latitude>30.18212</latitude>
    <longitude>120.253107</longitude>
    <campus>华家池</campus>
    <city>杭州</city>
  </location>
  <location>
    <deal_id></deal_id>
    <shop_id>69BCB811E578ABBEE471C44B57E2ED15</shop_id>
    <address>浙江杭州西湖区文一路254号</address>
    <latitude>30.287790298462</latitude>
    <longitude>120.1276473999</longitude>
    <campus>西溪</campus>
    <city>杭州</city>
  </location>
  <location>
    <deal_id></deal_id>
    <shop_id>ED4FB9EBAC37E626A0C6D7CD24A03D0D</shop_id>
    <address>萧山区瓜沥镇东灵路，近塘头桥</address>
    <latitude>30.177612765511</latitude>
    <longitude>120.45796181419</longitude>
    <campus>华家池</campus>
    <city>杭州</city>
  </location>
  <location>
    <deal_id></deal_id>
    <shop_id>6EDF078E62524E67</shop_id>
    <address>秋涛路689号  </address>
    <latitude>30.246599197388</latitude>
    <longitude>120.20037078857</longitude>
    <campus>华家池</campus>
    <city>杭州</city>
  </location>
  <location>
    <deal_id></deal_id>
    <shop_id>24782EC56D654267</shop_id>
    <address>潮王路208号(近湖墅南路)  </address>
    <latitude>30.285940170288</latitude>
    <longitude>120.15396118164</longitude>
    <campus>西溪</campus>
    <city>杭州</city>
  </location>
  <location>
    <deal_id></deal_id>
    <shop_id>CB94EAB7E7366C7A</shop_id>
    <address>东坡路10号(近平海路)  </address>
    <latitude>30.252389907837</latitude>
    <longitude>120.16325378418</longitude>
    <campus>华家池</campus>
    <city>杭州</city>
  </location>
  <location>
    <deal_id></deal_id>
    <shop_id>783D8403C0F03234</shop_id>
    <address>杭州武林广场1号(近体育场路)  </address>
    <latitude>30.271770477295</latitude>
    <longitude>120.16179656982</longitude>
    <campus>华家池</campus>
    <city>杭州</city>
  </location>
  <location>
    <deal_id></deal_id>
    <shop_id>6EDF078E62524E67</shop_id>
    <address>秋涛路689号  </address>
    <latitude>30.246599197388</latitude>
    <longitude>120.20037078857</longitude>
    <campus>华家池</campus>
    <city>杭州</city>
  </location>
  <location>
    <deal_id></deal_id>
    <shop_id>24782EC56D654267</shop_id>
    <address>潮王路208号(近湖墅南路)  </address>
    <latitude>30.285940170288</latitude>
    <longitude>120.15396118164</longitude>
    <campus>西溪</campus>
    <city>杭州</city>
  </location>
  <location>
    <deal_id></deal_id>
    <shop_id>FDEC82C4E6A785284C0B81F4E3CD3200</shop_id>
    <address>杭州西湖区文二西路489号颐景园综合楼704室(文二西路与古墩路交叉口西南角)</address>
    <latitude>30.287445</latitude>
    <longitude>120.105836</longitude>
    <campus>玉泉</campus>
    <city>杭州</city>
  </location>
  <location>
    <deal_id></deal_id>
    <shop_id>FD6904E234C7DFEF</shop_id>
    <address>湖墅南路403号(近文一路)  </address>
    <latitude>30.289190292358</latitude>
    <longitude>120.14967346191</longitude>
    <campus>西溪</campus>
    <city>杭州</city>
  </location>
  <location>
    <deal_id></deal_id>
    <shop_id>89CEF1CE538BADB0</shop_id>
    <address>富阳市江滨西大道56号  </address>
    <latitude>30.032640457153</latitude>
    <longitude>119.9439163208</longitude>
    <campus>之江</campus>
    <city>杭州</city>
  </location>
  <location>
    <deal_id></deal_id>
    <shop_id>16BB575F763A561C</shop_id>
    <address>朝晖路151号  </address>
    <latitude>30.278120040894</latitude>
    <longitude>120.17543792725</longitude>
    <campus>华家池</campus>
    <city>杭州</city>
  </location>
  <location>
    <deal_id></deal_id>
    <shop_id>1D953155559C618E58C02ECDEBB04723</shop_id>
    <address>马塍路31</address>
    <latitude>30.280701720937</latitude>
    <longitude>120.14787988297</longitude>
    <campus>西溪</campus>
    <city>杭州</city>
  </location>
  <location>
    <deal_id></deal_id>
    <shop_id>AE48D5CFBB572077</shop_id>
    <address>竞舟路220号金城花园25号(近文二西路)  </address>
    <latitude>30.282119750977</latitude>
    <longitude>120.10524749756</longitude>
    <campus>玉泉</campus>
    <city>杭州</city>
  </location>
  <location>
    <deal_id></deal_id>
    <shop_id>AA33E6C6DE19A62A</shop_id>
    <address>昙花庵路221号  </address>
    <latitude>30.270029067993</latitude>
    <longitude>120.20359039307</longitude>
    <campus>华家池</campus>
    <city>杭州</city>
  </location>
  <location>
    <deal_id></deal_id>
    <shop_id>9D45C77D2DB4D10BE15DA64B71EB435B</shop_id>
    <address>双菱路102-104号</address>
    <latitude>30.260498520316</latitude>
    <longitude>120.19921084858</longitude>
    <campus>华家池</campus>
    <city>杭州</city>
  </location>
  <location>
    <deal_id></deal_id>
    <shop_id>579DDC050690EB77</shop_id>
    <address>富阳市苋浦路13号201室  </address>
    <latitude>30.048650741577</latitude>
    <longitude>119.95265197754</longitude>
    <campus>之江</campus>
    <city>杭州</city>
  </location>
  <location>
    <deal_id></deal_id>
    <shop_id>5F11EBB10E48D19E</shop_id>
    <address>转塘直街3号(镇政府对面)  </address>
    <latitude>30.158809661865</latitude>
    <longitude>120.08010101318</longitude>
    <campus>之江</campus>
    <city>杭州</city>
  </location>
  <location>
    <deal_id></deal_id>
    <shop_id>17FFF343E4D15CE158567B174B2BBBCF</shop_id>
    <address>复兴南路168号</address>
    <latitude>30.207806464287</latitude>
    <longitude>120.16593861974</longitude>
    <campus>之江</campus>
    <city>杭州</city>
  </location>
  <location>
    <deal_id></deal_id>
    <shop_id>E285890743FD3F25</shop_id>
    <address>江城路402号  </address>
    <latitude>30.231290817261</latitude>
    <longitude>120.17456054688</longitude>
    <campus>华家池</campus>
    <city>杭州</city>
  </location>
  <location>
    <deal_id></deal_id>
    <shop_id>5EDC26F343BA54C8</shop_id>
    <address>富阳市桂花西路店70号(近富春街道)  </address>
    <latitude>30.04801940918</latitude>
    <longitude>119.94612121582</longitude>
    <campus>之江</campus>
    <city>杭州</city>
  </location>
  <location>
    <deal_id></deal_id>
    <shop_id>E54D6CADAB2158D382B14C9EF35105AD</shop_id>
    <address>富阳市龙山路126号(近市心北路)</address>
    <latitude>30.05166634052</latitude>
    <longitude>119.9592695</longitude>
    <campus>之江</campus>
    <city>杭州</city>
  </location>
  <location>
    <deal_id></deal_id>
    <shop_id>14791A21724B7A4D4FF3AB31129F72D5</shop_id>
    <address>莫干山路</address>
    <latitude>30.289986</latitude>
    <longitude>120.14493</longitude>
    <campus>西溪</campus>
    <city>杭州</city>
  </location>
  <location>
    <deal_id></deal_id>
    <shop_id>0E201BF02F17CBF4FC0447B0D2261B31</shop_id>
    <address>华丰路华丰村公交站</address>
    <latitude>30.336891385928</latitude>
    <longitude>120.20996084858</longitude>
    <campus>华家池</campus>
    <city>杭州</city>
  </location>
  <location>
    <deal_id></deal_id>
    <shop_id>E4D75F2AD523605A</shop_id>
    <address>凯旋路198号(凤起路口)  </address>
    <latitude>30.264650344849</latitude>
    <longitude>120.1912689209</longitude>
    <campus>华家池</campus>
    <city>杭州</city>
  </location>
  <location>
    <deal_id></deal_id>
    <shop_id>17FFF343E4D15CE158567B174B2BBBCF</shop_id>
    <address>复兴南路168号</address>
    <latitude>30.207806464287</latitude>
    <longitude>120.16593861974</longitude>
    <campus>之江</campus>
    <city>杭州</city>
  </location>
  <location>
    <deal_id></deal_id>
    <shop_id>59C1A87799ED70</shop_id>
    <address>杭州西湖区保俶路72号(近省府大楼西公交站)</address>
    <latitude>30.264404189014</latitude>
    <longitude>120.15028168181</longitude>
    <campus>西溪</campus>
    <city>杭州</city>
  </location>
  <location>
    <deal_id></deal_id>
    <shop_id>E9E820EEAA1FB0D0</shop_id>
    <address>富阳市孙权路146号  </address>
    <latitude>30.053169250488</latitude>
    <longitude>119.94072723389</longitude>
    <campus>之江</campus>
    <city>杭州</city>
  </location>
  <location>
    <deal_id></deal_id>
    <shop_id>DC762A60157B4586</shop_id>
    <address>三墩镇灯彩路170号  </address>
    <latitude>30.319189071655</latitude>
    <longitude>120.08247375488</longitude>
    <campus>紫金港</campus>
    <city>杭州</city>
  </location>
  <location>
    <deal_id></deal_id>
    <shop_id>C475DFD6899D7E93</shop_id>
    <address>清波街67号(近南山路)  </address>
    <latitude>30.232135159321</latitude>
    <longitude>120.17233771974</longitude>
    <campus>华家池</campus>
    <city>杭州</city>
  </location>
  <location>
    <deal_id></deal_id>
    <shop_id>5EDC26F343BA54C8</shop_id>
    <address>富阳市桂花西路店70号(近富春街道)  </address>
    <latitude>30.04801940918</latitude>
    <longitude>119.94612121582</longitude>
    <campus>之江</campus>
    <city>杭州</city>
  </location>
  <location>
    <deal_id></deal_id>
    <shop_id>DB1A0D2B4BC8B7AE2C90EE06F990AEEF</shop_id>
    <address>古墩路文三西路口公交车站</address>
    <latitude>30.277283685293</latitude>
    <longitude>120.10064720254</longitude>
    <campus>玉泉</campus>
    <city>杭州</city>
  </location>
  <location>
    <deal_id></deal_id>
    <shop_id>60E20599F84D37D6</shop_id>
    <address>建国北路420号(河滨乐购对面)  </address>
    <latitude>30.26775932312</latitude>
    <longitude>120.18115997315</longitude>
    <campus>华家池</campus>
    <city>杭州</city>
  </location>
  <location>
    <deal_id></deal_id>
    <shop_id>EC0831770475B2F344B5D56602C5C90C</shop_id>
    <address>文三西路</address>
    <latitude>30.274887586723</latitude>
    <longitude>120.11278588297</longitude>
    <campus>玉泉</campus>
    <city>杭州</city>
  </location>
  <location>
    <deal_id></deal_id>
    <shop_id>D1078579A24483</shop_id>
    <address>浙江省富阳市花坞路</address>
    <latitude>30.049845105591</latitude>
    <longitude>119.96679195043</longitude>
    <campus>之江</campus>
    <city>杭州</city>
  </location>
  <location>
    <deal_id></deal_id>
    <shop_id>0F1B95875E065214</shop_id>
    <address>蓟县城内迎宾路12号  </address>
    <latitude>30.050579071045</latitude>
    <longitude>119.95496368408</longitude>
    <campus>之江</campus>
    <city>天津</city>
  </location>
  <location>
    <deal_id></deal_id>
    <shop_id>E3CB3C1456AC490D</shop_id>
    <address>富阳市龙山路211-5号(近商业城)  </address>
    <latitude>30.051359176636</latitude>
    <longitude>119.95494842529</longitude>
    <campus>之江</campus>
    <city>杭州</city>
  </location>
  <location>
    <deal_id></deal_id>
    <shop_id>BD0CB610FA648B96</shop_id>
    <address>永庆路12号(拱北蚕花苑对面)</address>
    <latitude>30.328294333761</latitude>
    <longitude>120.14640161395</longitude>
    <campus>西溪</campus>
    <city>杭州</city>
  </location>
  <location>
    <deal_id></deal_id>
    <shop_id>0F1B95875E065214</shop_id>
    <address>蓟县城内迎宾路12号  </address>
    <latitude>30.050579071045</latitude>
    <longitude>119.95496368408</longitude>
    <campus>之江</campus>
    <city>天津</city>
  </location>
  <location>
    <deal_id></deal_id>
    <shop_id>018500EBFD36E7A22E3FE24F77290DB2</shop_id>
    <address>富阳市桂花西路68号世纪大厦一层</address>
    <latitude>30.04868</latitude>
    <longitude>119.945167</longitude>
    <campus>之江</campus>
    <city>杭州</city>
  </location>
  <location>
    <deal_id></deal_id>
    <shop_id>46E1375C7FFC9CE62CF5038AD4CAF1A7</shop_id>
    <address>益乐路华星路</address>
    <latitude>30.275016</latitude>
    <longitude>120.11649</longitude>
    <campus>玉泉</campus>
    <city>杭州</city>
  </location>
  <location>
    <deal_id></deal_id>
    <shop_id>C0D912BA7CE5ABC9</shop_id>
    <address>杭州江汉路1663号</address>
    <latitude>30.204617613802</latitude>
    <longitude>120.20354122915</longitude>
    <campus>华家池</campus>
    <city>杭州</city>
  </location>
  <location>
    <deal_id></deal_id>
    <shop_id>9650C5C29F15DD43C39C9FAFC4A16F7E</shop_id>
    <address>香积寺路再行路附近</address>
    <latitude>30.307420730591</latitude>
    <longitude>120.16973114014</longitude>
    <campus>华家池</campus>
    <city>杭州</city>
  </location>
  <location>
    <deal_id></deal_id>
    <shop_id>0D1A05CF4268E705</shop_id>
    <address>东新路沈家北园8号1楼  </address>
    <latitude>30.315790176392</latitude>
    <longitude>120.17742156982</longitude>
    <campus>华家池</campus>
    <city>杭州</city>
  </location>
  <location>
    <deal_id></deal_id>
    <shop_id>FE8D530FABEDEE6A2673E19418748BA0</shop_id>
    <address>杭州市滨江区滨江高教园区浙江中医药大学23号楼</address>
    <latitude>30.177752891154</latitude>
    <longitude>120.14856732535</longitude>
    <campus>之江</campus>
    <city>杭州</city>
  </location>
  <location>
    <deal_id></deal_id>
    <shop_id>E9026173540E40FF9360FBAC78D88254</shop_id>
    <address>丁桥新城广场物美大卖场一楼惠兰雅路572号(苏宁电器旁)</address>
    <latitude>30.274089</latitude>
    <longitude>120.155069</longitude>
    <campus>西溪</campus>
    <city>杭州</city>
  </location>
  <location>
    <deal_id></deal_id>
    <shop_id>DE976521E65019B587B30D0DE1BF7CED</shop_id>
    <address>古墩路金家渡路董家路之间</address>
    <latitude>30.332763671875</latitude>
    <longitude>120.09076690674</longitude>
    <campus>紫金港</campus>
    <city>杭州</city>
  </location>
  <location>
    <deal_id></deal_id>
    <shop_id>54CE0740C433A454EC075081067F13EA</shop_id>
    <address>半山路56号中联百货一楼</address>
    <latitude>30.349974</latitude>
    <longitude>120.186891</longitude>
    <campus>华家池</campus>
    <city>杭州</city>
  </location>
  <location>
    <deal_id></deal_id>
    <shop_id>472A298174E6B8BA</shop_id>
    <address>体育场路47号(近环城东路)  </address>
    <latitude>30.270130157471</latitude>
    <longitude>120.18525695801</longitude>
    <campus>华家池</campus>
    <city>杭州</city>
  </location>
  <location>
    <deal_id></deal_id>
    <shop_id>5881914FD09FFE9F</shop_id>
    <address>新市街190号  </address>
    <latitude>30.285949707031</latitude>
    <longitude>120.16198730469</longitude>
    <campus>西溪</campus>
    <city>杭州</city>
  </location>
  <location>
    <deal_id></deal_id>
    <shop_id>B5E793075693578F409521D2F0BB62A0</shop_id>
    <address>文二路274号</address>
    <latitude>30.282937130436</latitude>
    <longitude>120.12784868008</longitude>
    <campus>西溪</campus>
    <city>杭州</city>
  </location>
  <location>
    <deal_id></deal_id>
    <shop_id>5EDC26F343BA54C8</shop_id>
    <address>富阳市桂花西路店70号(近富春街道)  </address>
    <latitude>30.04801940918</latitude>
    <longitude>119.94612121582</longitude>
    <campus>之江</campus>
    <city>杭州</city>
  </location>
  <location>
    <deal_id></deal_id>
    <shop_id>33F41127C9561D3177855A3893C2B9AE</shop_id>
    <address>杭州市拱墅区莫干山路851号</address>
    <latitude>30.304698</latitude>
    <longitude>120.126326</longitude>
    <campus>西溪</campus>
    <city>杭州</city>
  </location>
  <location>
    <deal_id></deal_id>
    <shop_id>24BB2957E5FED0</shop_id>
    <address>富阳金苑路</address>
    <latitude>30.05280738388</latitude>
    <longitude>119.93138236207</longitude>
    <campus>之江</campus>
    <city>杭州</city>
  </location>
  <location>
    <deal_id></deal_id>
    <shop_id>54EB2E2AB0E18812FC12AE9D02AD00C5</shop_id>
    <address>浙江省杭州市余杭区金渡北路</address>
    <latitude>30.337872041912</latitude>
    <longitude>120.08370588297</longitude>
    <campus>紫金港</campus>
    <city>杭州</city>
  </location>
  <location>
    <deal_id></deal_id>
    <shop_id>589A3045350381A6682A7A94047A8A7F</shop_id>
    <address>上城区二圣庙前58号维艺创意园</address>
    <latitude>30.262694673889</latitude>
    <longitude>120.17115814858</longitude>
    <campus>华家池</campus>
    <city>杭州</city>
  </location>
  <location>
    <deal_id></deal_id>
    <shop_id>C85231A2160DEC2B7C2D96C7CDCED765</shop_id>
    <address>浙江省杭州市拱墅区湖墅南路</address>
    <latitude>30.277964046744</latitude>
    <longitude>120.15489029056</longitude>
    <campus>西溪</campus>
    <city>杭州</city>
  </location>
  <location>
    <deal_id></deal_id>
    <shop_id>55BE3D3794F227C3</shop_id>
    <address>庆春路169号娃哈哈美食城3楼</address>
    <latitude>30.257989837261</latitude>
    <longitude>120.168665249</longitude>
    <campus>华家池</campus>
    <city>杭州</city>
  </location>
  <location>
    <deal_id></deal_id>
    <shop_id>75CEAD5C291D6887</shop_id>
    <address>西湖大道2号红楼大酒店3楼(城站广场对面)  </address>
    <latitude>30.245059967041</latitude>
    <longitude>120.18242645264</longitude>
    <campus>华家池</campus>
    <city>杭州</city>
  </location>
  <location>
    <deal_id></deal_id>
    <shop_id>CFA5D86D1892419DB24756E0B9C25521</shop_id>
    <address>杭州古水路1号</address>
    <latitude>30.295043353596</latitude>
    <longitude>120.15865623951</longitude>
    <campus>西溪</campus>
    <city>杭州</city>
  </location>
  <location>
    <deal_id></deal_id>
    <shop_id>39CD80130414FF5CC85D99BA074156CF</shop_id>
    <address>新塘路119号</address>
    <latitude>30.26657806863</latitude>
    <longitude>120.20776844858</longitude>
    <campus>华家池</campus>
    <city>杭州</city>
  </location>
  <location>
    <deal_id></deal_id>
    <shop_id>ACD318CD640D10B86E84AD380C96321D</shop_id>
    <address>杭州市上城区中山中路192号</address>
    <latitude>30.243821</latitude>
    <longitude>120.170519</longitude>
    <campus>华家池</campus>
    <city>杭州</city>
  </location>
  <location>
    <deal_id></deal_id>
    <shop_id>56ECFF7CFC86A2DC1E482F973EFA3D8F</shop_id>
    <address>杭州西湖区黄姑山路3-1号</address>
    <latitude>30.273256281166</latitude>
    <longitude>120.13365238043</longitude>
    <campus>西溪</campus>
    <city>杭州</city>
  </location>
  <location>
    <deal_id></deal_id>
    <shop_id>C140BBC03AE0271C</shop_id>
    <address>益乐路46号(华星路口)  </address>
    <latitude>30.27864074707</latitude>
    <longitude>120.11466217041</longitude>
    <campus>玉泉</campus>
    <city>杭州</city>
  </location>
  <location>
    <deal_id></deal_id>
    <shop_id>0299267CF1F748</shop_id>
    <address>下城区绍兴路538号</address>
    <latitude>30.310473740294</latitude>
    <longitude>120.15755084858</longitude>
    <campus>西溪</campus>
    <city>杭州</city>
  </location>
  <location>
    <deal_id></deal_id>
    <shop_id>0A60DA7C8B0BDA</shop_id>
    <address>杭州市江干区学正街18号</address>
    <latitude>30.307137562653</latitude>
    <longitude>120.38368934183</longitude>
    <campus>华家池</campus>
    <city>杭州</city>
  </location>
  <location>
    <deal_id></deal_id>
    <shop_id>F56911A32676ABA0E8B9056778418504</shop_id>
    <address>华元电影大世界</address>
    <latitude>30.306900024414</latitude>
    <longitude>120.35688018799</longitude>
    <campus>华家池</campus>
    <city>杭州</city>
  </location>
  <location>
    <deal_id></deal_id>
    <shop_id>BFF3731BE04771A4128EC18DBAAC199F</shop_id>
    <address>下沙高教园区文津路 320路 366路区间 366路 566路</address>
    <latitude>30.313493903764</latitude>
    <longitude>120.36550294156</longitude>
    <campus>华家池</campus>
    <city>杭州</city>
  </location>
  <location>
    <deal_id></deal_id>
    <shop_id>A773067B6FF0AC663CAE2734A10F6351</shop_id>
    <address>杭州信义商街101号</address>
    <latitude>30.299775</latitude>
    <longitude>120.149077</longitude>
    <campus>西溪</campus>
    <city>杭州</city>
  </location>
  <location>
    <deal_id></deal_id>
    <shop_id>ABA64F5D946362C8</shop_id>
    <address>莫干山路76号(近文晖路)  </address>
    <latitude>30.27712059021</latitude>
    <longitude>120.15264129639</longitude>
    <campus>西溪</campus>
    <city>杭州</city>
  </location>
  <location>
    <deal_id></deal_id>
    <shop_id>AD1E9827038C495BA64AEA1AEA9D35E3</shop_id>
    <address>杭州中山南路鼓楼至严官巷</address>
    <latitude>30.230728149414</latitude>
    <longitude>120.17024993897</longitude>
    <campus>华家池</campus>
    <city>杭州</city>
  </location>
  <location>
    <deal_id></deal_id>
    <shop_id>783D8403C0F03234</shop_id>
    <address>杭州武林广场1号(近体育场路)  </address>
    <latitude>30.271770477295</latitude>
    <longitude>120.16179656982</longitude>
    <campus>华家池</campus>
    <city>杭州</city>
  </location>
  <location>
    <deal_id></deal_id>
    <shop_id>0ECC9679B64DAA</shop_id>
    <address>杭州中山北路500号天水巷天水小学正门口(胭脂新村内)</address>
    <latitude>30.271585976613</latitude>
    <longitude>120.16730049377</longitude>
    <campus>华家池</campus>
    <city>杭州</city>
  </location>
  <location>
    <deal_id></deal_id>
    <shop_id>8CE19E8E45132A20EDFC6F5B1F7D88A3</shop_id>
    <address>浙江省杭州市下城区路朝晖路207号深蓝广场109室(近上塘高架)</address>
    <latitude>30.277007923136</latitude>
    <longitude>120.16948084858</longitude>
    <campus>华家池</campus>
    <city>杭州</city>
  </location>
  <location>
    <deal_id></deal_id>
    <shop_id>891A74AABAF6EDAE</shop_id>
    <address>平海路15号中山国际大酒店副楼2楼  </address>
    <latitude>30.253820419311</latitude>
    <longitude>120.16996765137</longitude>
    <campus>华家池</campus>
    <city>杭州</city>
  </location>
  <location>
    <deal_id></deal_id>
    <shop_id>2FB0EE285ADCDD3AE765488FB43AD467</shop_id>
    <address>浙江省杭州市文一路228号</address>
    <latitude>30.288254</latitude>
    <longitude>120.129704</longitude>
    <campus>西溪</campus>
    <city>杭州</city>
  </location>
  <location>
    <deal_id></deal_id>
    <shop_id>55BE3D3794F227C3</shop_id>
    <address>庆春路169号娃哈哈美食城3楼</address>
    <latitude>30.257989837261</latitude>
    <longitude>120.168665249</longitude>
    <campus>华家池</campus>
    <city>杭州</city>
  </location>
  <location>
    <deal_id></deal_id>
    <shop_id>DBD0C98BDB1754FC</shop_id>
    <address>杭州拱墅区上塘路600号(百安居)</address>
    <latitude>30.311616859899</latitude>
    <longitude>120.14798903803</longitude>
    <campus>西溪</campus>
    <city>杭州</city>
  </location>
  <location>
    <deal_id></deal_id>
    <shop_id>81C50A64370F23</shop_id>
    <address>湖州街杭行路交叉口</address>
    <latitude>30.321754569274</latitude>
    <longitude>120.12301868297</longitude>
    <campus>紫金港</campus>
    <city>杭州</city>
  </location>
  <location>
    <deal_id></deal_id>
    <shop_id>8028412BDB3F24080F1775E297D3F26C</shop_id>
    <address>杭州中山南路，鼓楼至上仓桥</address>
    <latitude>30.237152015411</latitude>
    <longitude>120.17501211974</longitude>
    <campus>华家池</campus>
    <city>杭州</city>
  </location>
  <location>
    <deal_id></deal_id>
    <shop_id>79464B28E8A53BF5E31864283A46BCE8</shop_id>
    <address>浙江省杭州市下城区庆春路</address>
    <latitude>30.256122413574</latitude>
    <longitude>120.17338884858</longitude>
    <campus>华家池</campus>
    <city>杭州</city>
  </location>
  <location>
    <deal_id></deal_id>
    <shop_id>53937D6AB86C5DA65D240A1C7226EB1C</shop_id>
    <address>高银街79号</address>
    <latitude>30.242311808351</latitude>
    <longitude>120.17127411974</longitude>
    <campus>华家池</campus>
    <city>上海</city>
  </location>
  <location>
    <deal_id></deal_id>
    <shop_id>2FB0EE285ADCDD3AE765488FB43AD467</shop_id>
    <address>浙江省杭州市文一路228号</address>
    <latitude>30.288254</latitude>
    <longitude>120.129704</longitude>
    <campus>西溪</campus>
    <city>杭州</city>
  </location>
  <location>
    <deal_id></deal_id>
    <shop_id>558923FA84317EE443BF5345C2FE0508</shop_id>
    <address>浙江省杭州市拱墅区祝家巷</address>
    <latitude>30.296534086534</latitude>
    <longitude>120.15263488297</longitude>
    <campus>西溪</campus>
    <city>杭州</city>
  </location>
  <location>
    <deal_id></deal_id>
    <shop_id>D27A89FD24AFFE</shop_id>
    <address>天城路197号</address>
    <latitude>30.341323494297</latitude>
    <longitude>120.18800384858</longitude>
    <campus>华家池</campus>
    <city>杭州</city>
  </location>
  <location>
    <deal_id></deal_id>
    <shop_id>8857503976772803342</shop_id>
    <address>上城区吴山广场</address>
    <latitude>30.239956587413</latitude>
    <longitude>120.16722002456</longitude>
    <campus>华家池</campus>
    <city>杭州</city>
  </location>
  <location>
    <deal_id></deal_id>
    <shop_id>BC1F4E6A56209C2B6C7B2C6F651D015C</shop_id>
    <address>保俶路72号</address>
    <latitude>30.264233</latitude>
    <longitude>120.150127</longitude>
    <campus>西溪</campus>
    <city>杭州</city>
  </location>
  <location>
    <deal_id></deal_id>
    <shop_id>83625DCE0B499E89D0BF0C73E140ED93</shop_id>
    <address>上城区望江东路鲲鹏路363号</address>
    <latitude>30.228294465356</latitude>
    <longitude>120.19648011974</longitude>
    <campus>华家池</campus>
    <city>杭州</city>
  </location>
  <location>
    <deal_id></deal_id>
    <shop_id>984346BB291771FD</shop_id>
    <address>高银美食街115-117号(近吴山广场)  </address>
    <latitude>30.240219116211</latitude>
    <longitude>120.16808319092</longitude>
    <campus>华家池</campus>
    <city>杭州</city>
  </location>
  <location>
    <deal_id></deal_id>
    <shop_id>4F6AD1D0996B8F5C</shop_id>
    <address>高银街22-30号(河坊街口)  </address>
    <latitude>30.240390777588</latitude>
    <longitude>120.17098236084</longitude>
    <campus>华家池</campus>
    <city>杭州</city>
  </location>
  <location>
    <deal_id></deal_id>
    <shop_id>4E7BA251BD4B58BF95B19CDC24B86625</shop_id>
    <address>萧山区金城路333号</address>
    <latitude>30.18212</latitude>
    <longitude>120.253107</longitude>
    <campus>华家池</campus>
    <city>杭州</city>
  </location>
  <location>
    <deal_id></deal_id>
    <shop_id>69BCB811E578ABBEE471C44B57E2ED15</shop_id>
    <address>浙江杭州西湖区文一路254号</address>
    <latitude>30.287790298462</latitude>
    <longitude>120.1276473999</longitude>
    <campus>西溪</campus>
    <city>杭州</city>
  </location>
  <location>
    <deal_id></deal_id>
    <shop_id>ED4FB9EBAC37E626A0C6D7CD24A03D0D</shop_id>
    <address>萧山区瓜沥镇东灵路，近塘头桥</address>
    <latitude>30.177612765511</latitude>
    <longitude>120.45796181419</longitude>
    <campus>华家池</campus>
    <city>杭州</city>
  </location>
  <location>
    <deal_id></deal_id>
    <shop_id>FDEC82C4E6A785284C0B81F4E3CD3200</shop_id>
    <address>杭州西湖区文二西路489号颐景园综合楼704室(文二西路与古墩路交叉口西南角)</address>
    <latitude>30.287445</latitude>
    <longitude>120.105836</longitude>
    <campus>玉泉</campus>
    <city>杭州</city>
  </location>
  <location>
    <deal_id></deal_id>
    <shop_id>6B90E3CC475A67CB</shop_id>
    <address>杭州延安路530号(近武林广场)  </address>
    <latitude>30.267829895019</latitude>
    <longitude>120.16384124756</longitude>
    <campus>华家池</campus>
    <city>杭州</city>
  </location>
  <location>
    <deal_id></deal_id>
    <shop_id>FF0384429E5CC8045A6E7B11DC5E09B8</shop_id>
    <address>龙游路37-1号</address>
    <latitude>30.26041956839</latitude>
    <longitude>120.15924824858</longitude>
    <campus>西溪</campus>
    <city>杭州</city>
  </location>
  <location>
    <deal_id></deal_id>
    <shop_id>642DFB980BC915</shop_id>
    <address>西湖文化广场16号，环球金融中心一号。</address>
    <latitude>30.276245804536</latitude>
    <longitude>120.16507134858</longitude>
    <campus>华家池</campus>
    <city>杭州</city>
  </location>
  <location>
    <deal_id></deal_id>
    <shop_id>F2D5C00AD7E9BFCAA00FF1607ECAACCF</shop_id>
    <address>杭州西湖区申花路789号</address>
    <latitude>30.3071582</latitude>
    <longitude>120.0973366</longitude>
    <campus>紫金港</campus>
    <city>杭州</city>
  </location>
  <location>
    <deal_id></deal_id>
    <shop_id>FE7C6BF4FB1F224F</shop_id>
    <address>杭州五云山云栖坞梅坞路</address>
    <latitude>30.189288962797</latitude>
    <longitude>120.09427928925</longitude>
    <campus>之江</campus>
    <city>杭州</city>
  </location>
  <location>
    <deal_id></deal_id>
    <shop_id>73CDA5D68A85CCC83C29BCF6F4502BC3</shop_id>
    <address>小河直街</address>
    <latitude>30.304368972778</latitude>
    <longitude>120.14179992676</longitude>
    <campus>西溪</campus>
    <city>杭州</city>
  </location>
  <location>
    <deal_id></deal_id>
    <shop_id>751C8E874DBA21A8</shop_id>
    <address>杭州延安南路98号(定安路口)</address>
    <latitude>30.244064839117</latitude>
    <longitude>120.16478335582</longitude>
    <campus>华家池</campus>
    <city>杭州</city>
  </location>
  <location>
    <deal_id></deal_id>
    <shop_id>D2ABF1F8C85AC41A</shop_id>
    <address>上城区龙游路38号</address>
    <latitude>30.261841407124</latitude>
    <longitude>120.16009539154</longitude>
    <campus>西溪</campus>
    <city>杭州</city>
  </location>
  <location>
    <deal_id></deal_id>
    <shop_id>7A9A32482EB406F5</shop_id>
    <address>南山路147号西湖天地内G号商铺(近西湖大道)</address>
    <latitude>30.247139566749</latitude>
    <longitude>120.16015851497</longitude>
    <campus>华家池</campus>
    <city>杭州</city>
  </location>
  <location>
    <deal_id></deal_id>
    <shop_id>837A6516E41C57D0</shop_id>
    <address>钱潮路2-6号(近杭州大剧院)  </address>
    <latitude>30.255800247192</latitude>
    <longitude>120.22061157227</longitude>
    <campus>华家池</campus>
    <city>杭州</city>
  </location>
  <location>
    <deal_id></deal_id>
    <shop_id>318B5F80F7FD8797</shop_id>
    <address>湖滨路6号(近邮电路)</address>
    <latitude>30.251123335897</latitude>
    <longitude>120.16317659616</longitude>
    <campus>华家池</campus>
    <city>杭州</city>
  </location>
  <location>
    <deal_id></deal_id>
    <shop_id>AD1E9827038C495BA64AEA1AEA9D35E3</shop_id>
    <address>杭州中山南路鼓楼至严官巷</address>
    <latitude>30.230728149414</latitude>
    <longitude>120.17024993897</longitude>
    <campus>华家池</campus>
    <city>杭州</city>
  </location>
  <location>
    <deal_id></deal_id>
    <shop_id>6AAA665E2A03B30B</shop_id>
    <address>体育场路221号(中河路口)  </address>
    <latitude>30.269369125366</latitude>
    <longitude>120.17063903809</longitude>
    <campus>华家池</campus>
    <city>杭州</city>
  </location>
  <location>
    <deal_id></deal_id>
    <shop_id>5A58645A30F014E2</shop_id>
    <address>清泰街488号  </address>
    <latitude>30.247009277344</latitude>
    <longitude>120.17414855957</longitude>
    <campus>华家池</campus>
    <city>杭州</city>
  </location>
  <location>
    <deal_id></deal_id>
    <shop_id>7530D8D2B6E6F8CA4BDD7013031F9080</shop_id>
    <address>上城区平海路岳王路口</address>
    <latitude>30.253976060291</latitude>
    <longitude>120.16887199619</longitude>
    <campus>华家池</campus>
    <city>杭州</city>
  </location>
  <location>
    <deal_id></deal_id>
    <shop_id>EF1A86EA78E047B5</shop_id>
    <address>解放路251号(近湖滨路)  </address>
    <latitude>30.249780654907</latitude>
    <longitude>120.16577148438</longitude>
    <campus>华家池</campus>
    <city>杭州</city>
  </location>
  <location>
    <deal_id></deal_id>
    <shop_id>A14866E3A94BB1</shop_id>
    <address>下城区东新路155号和平广场世纪联华1楼</address>
    <latitude>30.290417354824</latitude>
    <longitude>120.17694748825</longitude>
    <campus>华家池</campus>
    <city>杭州</city>
  </location>
  <location>
    <deal_id></deal_id>
    <shop_id>DE353EC43FE836</shop_id>
    <address>转塘新村</address>
    <latitude>30.160449311667</latitude>
    <longitude>120.07816325414</longitude>
    <campus>之江</campus>
    <city>杭州</city>
  </location>
  <location>
    <deal_id></deal_id>
    <shop_id>7B1BE1B1F2782662C5B18C2A9BB1F337</shop_id>
    <address>杭州滨江高教园区垃圾街</address>
    <latitude>30.170355049145</latitude>
    <longitude>120.15847211974</longitude>
    <campus>之江</campus>
    <city>杭州</city>
  </location>
  <location>
    <deal_id></deal_id>
    <shop_id>F42B5BC4C7B03FF3F74EA48376168728</shop_id>
    <address>莫干山路206号</address>
    <latitude>30.286204</latitude>
    <longitude>120.146635</longitude>
    <campus>西溪</campus>
    <city>香港</city>
  </location>
  <location>
    <deal_id></deal_id>
    <shop_id>55BE3D3794F227C3</shop_id>
    <address>庆春路169号娃哈哈美食城3楼</address>
    <latitude>30.257989837261</latitude>
    <longitude>120.168665249</longitude>
    <campus>华家池</campus>
    <city>杭州</city>
  </location>
  <location>
    <deal_id></deal_id>
    <shop_id>8E2F7381B8458C29B2AEBB35CD9C395E</shop_id>
    <address>浙江省杭州市西湖区文二西路</address>
    <latitude>30.279561694619</latitude>
    <longitude>120.08347988297</longitude>
    <campus>紫金港</campus>
    <city>杭州</city>
  </location>
  <location>
    <deal_id></deal_id>
    <shop_id>B577ED838EBE0C6F</shop_id>
    <address>平海路25号华辰国际酒店1楼  </address>
    <latitude>30.253669738769</latitude>
    <longitude>120.16867828369</longitude>
    <campus>华家池</campus>
    <city>杭州</city>
  </location>
  <location>
    <deal_id></deal_id>
    <shop_id>1D8DB6CB1C91031F</shop_id>
    <address>杭州莫干山路766号</address>
    <latitude>30.316749572754</latitude>
    <longitude>120.11289215088</longitude>
    <campus>紫金港</campus>
    <city>杭州</city>
  </location>
  <location>
    <deal_id></deal_id>
    <shop_id>6CD463A3966479208619FBCEDE8A5277</shop_id>
    <address>浙江省杭州市西湖区虎跑路四眼井248号</address>
    <latitude>30.216572606413</latitude>
    <longitude>120.13716915414</longitude>
    <campus>之江</campus>
    <city>杭州</city>
  </location>
  <location>
    <deal_id></deal_id>
    <shop_id>59C1A87799ED70</shop_id>
    <address>杭州西湖区保俶路72号(近省府大楼西公交站)</address>
    <latitude>30.264404189014</latitude>
    <longitude>120.15028168181</longitude>
    <campus>西溪</campus>
    <city>杭州</city>
  </location>
  <location>
    <deal_id></deal_id>
    <shop_id>5DA181935AFAEA72</shop_id>
    <address>小河路336号  </address>
    <latitude>30.31164932251</latitude>
    <longitude>120.13603973389</longitude>
    <campus>西溪</campus>
    <city>杭州</city>
  </location>
  <location>
    <deal_id></deal_id>
    <shop_id>1004264459815A2A26C8B5329A8DB4FA</shop_id>
    <address>机场路40号</address>
    <latitude>30.287555180587</latitude>
    <longitude>120.19610484858</longitude>
    <campus>华家池</campus>
    <city>杭州</city>
  </location>
  <location>
    <deal_id></deal_id>
    <shop_id>5925ABCB03DF13A7</shop_id>
    <address>大关路(近钱江小商品市场)  </address>
    <latitude>30.309209823608</latitude>
    <longitude>120.15209960938</longitude>
    <campus>西溪</campus>
    <city>杭州</city>
  </location>
  <location>
    <deal_id></deal_id>
    <shop_id>6DF2AD57E9252CBF9B7D5668A92CA529</shop_id>
    <address>上城区环城东路1号(西湖大道东首)  沪杭高铁 杭州站</address>
    <latitude>30.243398226274</latitude>
    <longitude>120.18280633626</longitude>
    <campus>华家池</campus>
    <city>杭州</city>
  </location>
  <location>
    <deal_id></deal_id>
    <shop_id>D564195D44CFD022BFD6EAF8A2B003AA</shop_id>
    <address>中山南路495-1(鼓楼城墙下问问沈银花是哪家)</address>
    <latitude>30.238190577493</latitude>
    <longitude>120.17289846974</longitude>
    <campus>华家池</campus>
    <city>杭州</city>
  </location>
  <location>
    <deal_id></deal_id>
    <shop_id>87C7601DFF13D7DBC535E953E538BA9D</shop_id>
    <address>文二西路近古墩路口</address>
    <latitude>30.281363</latitude>
    <longitude>120.098069</longitude>
    <campus>玉泉</campus>
    <city>杭州</city>
  </location>
  <location>
    <deal_id></deal_id>
    <shop_id>A64A782BBC62CA047CC1198F4E41A157</shop_id>
    <address>文一西路960号</address>
    <latitude>30.292209</latitude>
    <longitude>120.135976</longitude>
    <campus>西溪</campus>
    <city>杭州</city>
  </location>
  <location>
    <deal_id></deal_id>
    <shop_id>4B675CA8D89A45EB4FCA8F42E8FEDAFA</shop_id>
    <address>杭州丰潭路288号</address>
    <latitude>30.292375</latitude>
    <longitude>120.114686</longitude>
    <campus>西溪</campus>
    <city>杭州</city>
  </location>
  <location>
    <deal_id></deal_id>
    <shop_id>3D707E8543170D38F3DBE081F4E1598D</shop_id>
    <address>浙江省杭州市中山中路</address>
    <latitude>30.25011448859</latitude>
    <longitude>120.17056075143</longitude>
    <campus>华家池</campus>
    <city>杭州</city>
  </location>
  <location>
    <deal_id></deal_id>
    <shop_id>25C749066906337B</shop_id>
    <address>解放路211号  </address>
    <latitude>30.249839782715</latitude>
    <longitude>120.16590118408</longitude>
    <campus>华家池</campus>
    <city>杭州</city>
  </location>
  <location>
    <deal_id></deal_id>
    <shop_id>A64A782BBC62CA047CC1198F4E41A157</shop_id>
    <address>文一西路960号</address>
    <latitude>30.292209</latitude>
    <longitude>120.135976</longitude>
    <campus>西溪</campus>
    <city>杭州</city>
  </location>
  <location>
    <deal_id></deal_id>
    <shop_id>59C1A87799ED70</shop_id>
    <address>杭州西湖区保俶路72号(近省府大楼西公交站)</address>
    <latitude>30.264404189014</latitude>
    <longitude>120.15028168181</longitude>
    <campus>西溪</campus>
    <city>杭州</city>
  </location>
  <location>
    <deal_id></deal_id>
    <shop_id>C04FCC50D847BA54</shop_id>
    <address>新塘路88号天星龙大厦B座2楼(新塘路与凤起东路口)</address>
    <latitude>30.26176071167</latitude>
    <longitude>120.20823669434</longitude>
    <campus>华家池</campus>
    <city>杭州</city>
  </location>
  <location>
    <deal_id></deal_id>
    <shop_id>2A053C42839A1376</shop_id>
    <address>杭州虎跑路四眼井村66号(近满觉陇路)</address>
    <latitude>30.215789794922</latitude>
    <longitude>120.13587188721</longitude>
    <campus>之江</campus>
    <city>杭州</city>
  </location>
  <location>
    <deal_id></deal_id>
    <shop_id>3D707E8543170D38F3DBE081F4E1598D</shop_id>
    <address>浙江省杭州市中山中路</address>
    <latitude>30.25011448859</latitude>
    <longitude>120.17056075143</longitude>
    <campus>华家池</campus>
    <city>杭州</city>
  </location>
  <location>
    <deal_id></deal_id>
    <shop_id>98DA3DDDD1EA59</shop_id>
    <address>西湖区和家园杨梅山路350号</address>
    <latitude>30.232710416215</latitude>
    <longitude>120.05925902057</longitude>
    <campus>玉泉</campus>
    <city>杭州</city>
  </location>
  <location>
    <deal_id></deal_id>
    <shop_id>6AAA665E2A03B30B</shop_id>
    <address>体育场路221号(中河路口)  </address>
    <latitude>30.269369125366</latitude>
    <longitude>120.17063903809</longitude>
    <campus>华家池</campus>
    <city>杭州</city>
  </location>
  <location>
    <deal_id></deal_id>
    <shop_id>70502ADC6A78552ED97A835625295A8B</shop_id>
    <address>天目山路</address>
    <latitude>30.272828</latitude>
    <longitude>120.15246</longitude>
    <campus>西溪</campus>
    <city>杭州</city>
  </location>
  <location>
    <deal_id></deal_id>
    <shop_id>B9DE0DAC81182F</shop_id>
    <address>杭州下沙经济开发区六号大街600号1~3层0571-86842888</address>
    <latitude>30.301912636941</latitude>
    <longitude>120.34814765347</longitude>
    <campus>华家池</campus>
    <city>杭州</city>
  </location>
  <location>
    <deal_id></deal_id>
    <shop_id>92AB6C76356E99</shop_id>
    <address>杭州市下城区东新路928号</address>
    <latitude>30.33328419774</latitude>
    <longitude>120.17583344858</longitude>
    <campus>华家池</campus>
    <city>杭州</city>
  </location>
  <location>
    <deal_id></deal_id>
    <shop_id>DBD0C98BDB1754FC</shop_id>
    <address>杭州拱墅区上塘路600号(百安居)</address>
    <latitude>30.311616859899</latitude>
    <longitude>120.14798903803</longitude>
    <campus>西溪</campus>
    <city>杭州</city>
  </location>
  <location>
    <deal_id></deal_id>
    <shop_id>6786576EF42BB24B</shop_id>
    <address>定安路56-58号(开元酒楼对面)  </address>
    <latitude>30.244699478149</latitude>
    <longitude>120.16686248779</longitude>
    <campus>华家池</campus>
    <city>杭州</city>
  </location>
  <location>
    <deal_id></deal_id>
    <shop_id>A4BB063F7F5DD199</shop_id>
    <address>莫干山路623号  </address>
    <latitude>30.292520523071</latitude>
    <longitude>120.14212036133</longitude>
    <campus>西溪</campus>
    <city>杭州</city>
  </location>
  <location>
    <deal_id></deal_id>
    <shop_id>70502ADC6A78552ED97A835625295A8B</shop_id>
    <address>天目山路</address>
    <latitude>30.272828</latitude>
    <longitude>120.15246</longitude>
    <campus>西溪</campus>
    <city>杭州</city>
  </location>
  <location>
    <deal_id></deal_id>
    <shop_id>C380FF915F0ABA8E</shop_id>
    <address>朝晖路205号深蓝广场商铺1楼(中河路口)  </address>
    <latitude>30.275749206543</latitude>
    <longitude>120.16838073731</longitude>
    <campus>华家池</campus>
    <city>杭州</city>
  </location>
  <location>
    <deal_id></deal_id>
    <shop_id>CDADEFCBD96412</shop_id>
    <address>江干区凤起东路137号</address>
    <latitude>30.260658524218</latitude>
    <longitude>120.20703984858</longitude>
    <campus>华家池</campus>
    <city>杭州</city>
  </location>
  <location>
    <deal_id></deal_id>
    <shop_id>35F5A47B725EF946CE111B132CF64341</shop_id>
    <address>杭州市拱墅区假山路</address>
    <latitude>30.295248</latitude>
    <longitude>120.156773</longitude>
    <campus>西溪</campus>
    <city>杭州</city>
  </location>
  <location>
    <deal_id></deal_id>
    <shop_id>783D8403C0F03234</shop_id>
    <address>杭州武林广场1号(近体育场路)  </address>
    <latitude>30.271770477295</latitude>
    <longitude>120.16179656982</longitude>
    <campus>华家池</campus>
    <city>杭州</city>
  </location>
  <location>
    <deal_id></deal_id>
    <shop_id>984346BB291771FD</shop_id>
    <address>高银美食街115-117号(近吴山广场)  </address>
    <latitude>30.240219116211</latitude>
    <longitude>120.16808319092</longitude>
    <campus>华家池</campus>
    <city>杭州</city>
  </location>
  <location>
    <deal_id></deal_id>
    <shop_id>4F6AD1D0996B8F5C</shop_id>
    <address>高银街22-30号(河坊街口)  </address>
    <latitude>30.240390777588</latitude>
    <longitude>120.17098236084</longitude>
    <campus>华家池</campus>
    <city>杭州</city>
  </location>
  <location>
    <deal_id></deal_id>
    <shop_id>853FB25335968E52</shop_id>
    <address>保俶路108号(刘家香辣馆旁)  </address>
    <latitude>30.265129089356</latitude>
    <longitude>120.14910888672</longitude>
    <campus>西溪</campus>
    <city>杭州</city>
  </location>
  <location>
    <deal_id></deal_id>
    <shop_id>C2CB349208FE9E9B5AD6806CE5E6A6E8</shop_id>
    <address>苏州市太湖东路288号</address>
    <latitude>31.268170759643</latitude>
    <longitude>120.63358568839</longitude>
    <campus>华家池</campus>
    <city>苏州</city>
  </location>
  <location>
    <deal_id></deal_id>
    <shop_id>284995F6F99D0F</shop_id>
    <address>杭州凤起路285号(环北市场旁)</address>
    <latitude>30.264285612701</latitude>
    <longitude>120.17367034858</longitude>
    <campus>华家池</campus>
    <city>杭州</city>
  </location>
  <location>
    <deal_id></deal_id>
    <shop_id>CCFB4B7B1AFEDA6E</shop_id>
    <address>庆春路30号  </address>
    <latitude>30.258060455322</latitude>
    <longitude>120.18482971191</longitude>
    <campus>华家池</campus>
    <city>杭州</city>
  </location>
  <location>
    <deal_id></deal_id>
    <shop_id>0299267CF1F748</shop_id>
    <address>下城区绍兴路538号</address>
    <latitude>30.310473740294</latitude>
    <longitude>120.15755084858</longitude>
    <campus>西溪</campus>
    <city>杭州</city>
  </location>
  <location>
    <deal_id></deal_id>
    <shop_id>FE7C6BF4FB1F224F</shop_id>
    <address>杭州五云山云栖坞梅坞路</address>
    <latitude>30.189288962797</latitude>
    <longitude>120.09427928925</longitude>
    <campus>之江</campus>
    <city>杭州</city>
  </location>
  <location>
    <deal_id></deal_id>
    <shop_id>1944F7E5866E09EAB66C818F979AEFD2</shop_id>
    <address>江苏省昆山市</address>
    <latitude>31.351463706614</latitude>
    <longitude>120.95697234283</longitude>
    <campus>华家池</campus>
    <city>苏州</city>
  </location>
  <location>
    <deal_id></deal_id>
    <shop_id>3BAF32181AFD682EC86B5BE21F131592</shop_id>
    <address>杭州上城区中山南路万松岭路</address>
    <latitude>30.227879468747</latitude>
    <longitude>120.1687268083</longitude>
    <campus>华家池</campus>
    <city>杭州</city>
  </location>
  <location>
    <deal_id></deal_id>
    <shop_id>687150743B5BFFEB</shop_id>
    <address>德胜路2号(东新路口)  </address>
    <latitude>30.301410675049</latitude>
    <longitude>120.17668914795</longitude>
    <campus>华家池</campus>
    <city>杭州</city>
  </location>
  <location>
    <deal_id></deal_id>
    <shop_id>BBDFF5FC601B21E2C522EBB6F02BC6BA</shop_id>
    <address>德胜路177hao</address>
    <latitude>30.295463562012</latitude>
    <longitude>120.17140960693</longitude>
    <campus>华家池</campus>
    <city>杭州</city>
  </location>
  <location>
    <deal_id></deal_id>
    <shop_id>B577ED838EBE0C6F</shop_id>
    <address>平海路25号华辰国际酒店1楼  </address>
    <latitude>30.253669738769</latitude>
    <longitude>120.16867828369</longitude>
    <campus>华家池</campus>
    <city>杭州</city>
  </location>
  <location>
    <deal_id></deal_id>
    <shop_id>5D105F7B1A29ACE3</shop_id>
    <address>杭州江干区钱江新城富春路701号(江锦路民心路口)</address>
    <latitude>30.251492948682</latitude>
    <longitude>120.21538686752</longitude>
    <campus>华家池</campus>
    <city>杭州</city>
  </location>
  <location>
    <deal_id></deal_id>
    <shop_id>2DDD8D7DF8994B</shop_id>
    <address>千島湖石林鎮</address>
    <latitude>29.381551745284</latitude>
    <longitude>119.01326507319</longitude>
    <campus>之江</campus>
    <city>杭州</city>
  </location>
  <location>
    <deal_id></deal_id>
    <shop_id>751C8E874DBA21A8</shop_id>
    <address>杭州延安南路98号(定安路口)</address>
    <latitude>30.244064839117</latitude>
    <longitude>120.16478335582</longitude>
    <campus>华家池</campus>
    <city>杭州</city>
  </location>
  <location>
    <deal_id></deal_id>
    <shop_id>8F1D187257127B9D</shop_id>
    <address>杭州天目山路160号国际花园2楼(教工路口)  </address>
    <latitude>30.271089553833</latitude>
    <longitude>120.13730621338</longitude>
    <campus>西溪</campus>
    <city>杭州</city>
  </location>
  <location>
    <deal_id></deal_id>
    <shop_id>3A2F67ADD154ABAB</shop_id>
    <address>杭州文一路308号中竹大厦1-3楼(近物美超市)  </address>
    <latitude>30.287700653076</latitude>
    <longitude>120.12091064453</longitude>
    <campus>西溪</campus>
    <city>杭州</city>
  </location>
  <location>
    <deal_id></deal_id>
    <shop_id>751C8E874DBA21A8</shop_id>
    <address>杭州延安南路98号(定安路口)</address>
    <latitude>30.244064839117</latitude>
    <longitude>120.16478335582</longitude>
    <campus>华家池</campus>
    <city>杭州</city>
  </location>
  <location>
    <deal_id></deal_id>
    <shop_id>8F1D187257127B9D</shop_id>
    <address>杭州天目山路160号国际花园2楼(教工路口)  </address>
    <latitude>30.271089553833</latitude>
    <longitude>120.13730621338</longitude>
    <campus>西溪</campus>
    <city>杭州</city>
  </location>
  <location>
    <deal_id></deal_id>
    <shop_id>3A2F67ADD154ABAB</shop_id>
    <address>杭州文一路308号中竹大厦1-3楼(近物美超市)  </address>
    <latitude>30.287700653076</latitude>
    <longitude>120.12091064453</longitude>
    <campus>西溪</campus>
    <city>杭州</city>
  </location>
  <location>
    <deal_id></deal_id>
    <shop_id>ADB90DB0EFF34368</shop_id>
    <address>香积寺路72号(12路总站旁边)  </address>
    <latitude>30.307100296021</latitude>
    <longitude>120.17002868652</longitude>
    <campus>华家池</campus>
    <city>杭州</city>
  </location>
  <location>
    <deal_id></deal_id>
    <shop_id>ECAF9B5D47A29BAE6BF9AE9C325B83CE</shop_id>
    <address>杭州上城区延安路179号解百新元华4楼</address>
    <latitude>30.249824759215</latitude>
    <longitude>120.16384921102</longitude>
    <campus>华家池</campus>
    <city>杭州</city>
  </location>
  <location>
    <deal_id></deal_id>
    <shop_id>20D582B4F87343</shop_id>
    <address>上城区延安路18号天风大厦地下1层</address>
    <latitude>30.241138201761</latitude>
    <longitude>120.16495025801</longitude>
    <campus>华家池</campus>
    <city>杭州</city>
  </location>
  <location>
    <deal_id></deal_id>
    <shop_id>573A59A8C8D962</shop_id>
    <address>庆春路36号</address>
    <latitude>30.25873547731</latitude>
    <longitude>120.18297684858</longitude>
    <campus>华家池</campus>
    <city>杭州</city>
  </location>
  <location>
    <deal_id></deal_id>
    <shop_id>535C3964B875B844</shop_id>
    <address>新塘路35号三新大厦3-4楼(近银泰)  </address>
    <latitude>30.260200500488</latitude>
    <longitude>120.20741271973</longitude>
    <campus>华家池</campus>
    <city>杭州</city>
  </location>
  <location>
    <deal_id></deal_id>
    <shop_id>D80C068AEC9CD296</shop_id>
    <address>杭州石祥路589号汽车城C馆7楼(近汽车北站)</address>
    <latitude>30.323560714722</latitude>
    <longitude>120.11768341065</longitude>
    <campus>紫金港</campus>
    <city>杭州</city>
  </location>
  <location>
    <deal_id></deal_id>
    <shop_id>FDD79491885D64</shop_id>
    <address>杭州中河中路250号改革月报9F</address>
    <latitude>30.257294</latitude>
    <longitude>120.172336</longitude>
    <campus>华家池</campus>
    <city>杭州</city>
  </location>
  <location>
    <deal_id></deal_id>
    <shop_id>439A6A4B0D79B7B6</shop_id>
    <address>十全街263号  </address>
    <latitude>31.298610687256</latitude>
    <longitude>120.63902282715</longitude>
    <campus>华家池</campus>
    <city>苏州</city>
  </location>
  <location>
    <deal_id></deal_id>
    <shop_id>8060C71B2FFC948BA1C218625F4D1417</shop_id>
    <address>海曙區縣前街111號</address>
    <latitude>29.873397</latitude>
    <longitude>121.551272</longitude>
    <campus>华家池</campus>
    <city>宁波</city>
  </location>
  <location>
    <deal_id></deal_id>
    <shop_id>535C3964B875B844</shop_id>
    <address>新塘路35号三新大厦3-4楼(近银泰)  </address>
    <latitude>30.260200500488</latitude>
    <longitude>120.20741271973</longitude>
    <campus>华家池</campus>
    <city>杭州</city>
  </location>
  <location>
    <deal_id></deal_id>
    <shop_id>605FF8F7A9D816</shop_id>
    <address>望江东路333号</address>
    <latitude>30.228047459314</latitude>
    <longitude>120.19130911974</longitude>
    <campus>华家池</campus>
    <city>杭州</city>
  </location>
  <location>
    <deal_id></deal_id>
    <shop_id>88B3996817384F5381ADFB1AD5321C4D</shop_id>
    <address>大兜路10号</address>
    <latitude>30.296091</latitude>
    <longitude>120.148439</longitude>
    <campus>西溪</campus>
    <city>杭州</city>
  </location>
  <location>
    <deal_id></deal_id>
    <shop_id>3488A366F1946E8931C0874D7F521F39</shop_id>
    <address>杭州萧山区时代大道边</address>
    <latitude>30.101432760916</latitude>
    <longitude>120.19679485261</longitude>
    <campus>之江</campus>
    <city>杭州</city>
  </location>
  <location>
    <deal_id></deal_id>
    <shop_id>9F7F5919F3C9F4604A4144FD8609226B</shop_id>
    <address>拱墅区金华路锦昌文华苑69号对面(登云桥交叉口南100米)</address>
    <latitude>30.31152803684</latitude>
    <longitude>120.14226923188</longitude>
    <campus>西溪</campus>
    <city>杭州</city>
  </location>
  <location>
    <deal_id></deal_id>
    <shop_id>6E8D471470144722C018B9E2AFE46FD2</shop_id>
    <address>亲亲家园三期</address>
    <latitude>30.331350326538</latitude>
    <longitude>120.09138488769</longitude>
    <campus>紫金港</campus>
    <city>杭州</city>
  </location>
  <location>
    <deal_id></deal_id>
    <shop_id>6EC675BDC7BE04DEA101A087855C879A</shop_id>
    <address>杭州大厦c座旁边</address>
    <latitude>30.274175538055</latitude>
    <longitude>120.16225123405</longitude>
    <campus>华家池</campus>
    <city>杭州</city>
  </location>
  <location>
    <deal_id></deal_id>
    <shop_id>775249AD4F76AA77</shop_id>
    <address>文晖路448号星都宾馆3楼(近武林小广场)  </address>
    <latitude>30.278310775757</latitude>
    <longitude>120.15393829346</longitude>
    <campus>西溪</campus>
    <city>杭州</city>
  </location>
  <location>
    <deal_id></deal_id>
    <shop_id>3488A366F1946E8931C0874D7F521F39</shop_id>
    <address>杭州萧山区时代大道边</address>
    <latitude>30.101432760916</latitude>
    <longitude>120.19679485261</longitude>
    <campus>之江</campus>
    <city>杭州</city>
  </location>
  <location>
    <deal_id></deal_id>
    <shop_id>DFF85B079F88AAE89554D4FB3981514E</shop_id>
    <address>浙江省杭州市西湖区文一路</address>
    <latitude>30.288571902652</latitude>
    <longitude>120.13273688297</longitude>
    <campus>西溪</campus>
    <city>杭州</city>
  </location>
  <location>
    <deal_id></deal_id>
    <shop_id>86D723F79FB74DC01F44936498011032</shop_id>
    <address>凤起路中山北路</address>
    <latitude>30.263864</latitude>
    <longitude>120.168699</longitude>
    <campus>华家池</campus>
    <city>杭州</city>
  </location>
  <location>
    <deal_id></deal_id>
    <shop_id>87C7601DFF13D7DBC535E953E538BA9D</shop_id>
    <address>文二西路近古墩路口</address>
    <latitude>30.281363</latitude>
    <longitude>120.098069</longitude>
    <campus>玉泉</campus>
    <city>杭州</city>
  </location>
  <location>
    <deal_id></deal_id>
    <shop_id>837E9F8A9DD6F78993A05A1E8B6E07A4</shop_id>
    <address>苏州昆山市周庄镇</address>
    <latitude>31.117098608529</latitude>
    <longitude>120.84638245432</longitude>
    <campus>华家池</campus>
    <city>苏州</city>
  </location>
  <location>
    <deal_id></deal_id>
    <shop_id>485DF55D8C18AFECDCC363560CF6D9DC</shop_id>
    <address>象山县塘沙段</address>
    <latitude>29.237760953322</latitude>
    <longitude>121.95968643055</longitude>
    <campus>华家池</campus>
    <city>宁波</city>
  </location>
  <location>
    <deal_id></deal_id>
    <shop_id>8561AA4F41CE486E</shop_id>
    <address>杭州黄龙路1号黄龙体育中心内(近曙光路)</address>
    <latitude>30.266082608402</latitude>
    <longitude>120.13367627575</longitude>
    <campus>西溪</campus>
    <city>杭州</city>
  </location>
  <location>
    <deal_id></deal_id>
    <shop_id>8561AA4F41CE486E</shop_id>
    <address>杭州黄龙路1号黄龙体育中心内(近曙光路)</address>
    <latitude>30.266082608402</latitude>
    <longitude>120.13367627575</longitude>
    <campus>西溪</campus>
    <city>杭州</city>
  </location>
  <location>
    <deal_id></deal_id>
    <shop_id>D164FA67A81E0FF958BE0D1CF02E8C00</shop_id>
    <address>河坊街</address>
    <latitude>30.240034</latitude>
    <longitude>120.171132</longitude>
    <campus>华家池</campus>
    <city>杭州</city>
  </location>
  <location>
    <deal_id></deal_id>
    <shop_id>6354772644568116A15A9665EFC9338D</shop_id>
    <address>杭州市拱墅区湖墅南路米市巷11号</address>
    <latitude>30.286800861756</latitude>
    <longitude>120.15024288297</longitude>
    <campus>西溪</campus>
    <city>杭州</city>
  </location>
  <location>
    <deal_id></deal_id>
    <shop_id>9B7777CF8E1F84</shop_id>
    <address>余杭区良渚镇勾庄老街</address>
    <latitude>30.35457981517</latitude>
    <longitude>120.08489854739</longitude>
    <campus>紫金港</campus>
    <city>杭州</city>
  </location>
  <location>
    <deal_id></deal_id>
    <shop_id>2DDD8D7DF8994B</shop_id>
    <address>千島湖石林鎮</address>
    <latitude>29.381551745284</latitude>
    <longitude>119.01326507319</longitude>
    <campus>之江</campus>
    <city>杭州</city>
  </location>
  <location>
    <deal_id></deal_id>
    <shop_id>3A0C3AB3803BBAD587248B348B398187</shop_id>
    <address>上海周浦镇万达广场永和豆浆</address>
    <latitude>31.116152653147</latitude>
    <longitude>120.84729926326</longitude>
    <campus>华家池</campus>
    <city>上海</city>
  </location>
  <location>
    <deal_id></deal_id>
    <shop_id>9B7DEA242F629FEA3F25C1A59DFD4B42</shop_id>
    <address>浙江省杭州市桐庐县</address>
    <latitude>29.796391933828</latitude>
    <longitude>119.68881339025</longitude>
    <campus>之江</campus>
    <city>杭州</city>
  </location>
  <location>
    <deal_id></deal_id>
    <shop_id>E0B7C327D5A6F5E4</shop_id>
    <address>上海近郊青浦区金商公路701号</address>
    <latitude>31.07246</latitude>
    <longitude>120.91039</longitude>
    <campus>华家池</campus>
    <city>上海</city>
  </location>
  <location>
    <deal_id></deal_id>
    <shop_id>27C6D90C2C25127CAD9B4CC413987396</shop_id>
    <address>浙江省杭州市江干区凤起东路</address>
    <latitude>30.26269757396</latitude>
    <longitude>120.20696084858</longitude>
    <campus>华家池</campus>
    <city>杭州</city>
  </location>
  <location>
    <deal_id></deal_id>
    <shop_id>EBD7200BDC734062</shop_id>
    <address>杭州杨公堤10-12号(花港观鱼西门外)  </address>
    <latitude>30.229829788208</latitude>
    <longitude>120.13752746582</longitude>
    <campus>之江</campus>
    <city>杭州</city>
  </location>
  <location>
    <deal_id></deal_id>
    <shop_id>B8B99F3C2BD8790E005B97F788DA219B</shop_id>
    <address>北京东路</address>
    <latitude>32.056691</latitude>
    <longitude>118.801239</longitude>
    <campus>紫金港</campus>
    <city>南京</city>
  </location>
  <location>
    <deal_id></deal_id>
    <shop_id>2DDD8D7DF8994B</shop_id>
    <address>千島湖石林鎮</address>
    <latitude>29.381551745284</latitude>
    <longitude>119.01326507319</longitude>
    <campus>之江</campus>
    <city>杭州</city>
  </location>
  <location>
    <deal_id></deal_id>
    <shop_id>7C875F938C0B0938A0A53DCC4E9A0132</shop_id>
    <address>104国道</address>
    <latitude>30.045618</latitude>
    <longitude>120.514333</longitude>
    <campus>华家池</campus>
    <city>绍兴</city>
  </location>
  <location>
    <deal_id></deal_id>
    <shop_id>DBEC7A62C4FA43</shop_id>
    <address>芜湖县西河镇</address>
    <latitude>30.990064</latitude>
    <longitude>118.480305</longitude>
    <campus>紫金港</campus>
    <city>芜湖</city>
  </location>
  <location>
    <deal_id></deal_id>
    <shop_id>7655A95EECE91363F6A603FD47DFD3AE</shop_id>
    <address>美政路</address>
    <latitude>30.211894064232</latitude>
    <longitude>120.16956511974</longitude>
    <campus>之江</campus>
    <city>杭州</city>
  </location>
  <location>
    <deal_id></deal_id>
    <shop_id>A90148178EABEC</shop_id>
    <address>下城区朝晖路179号</address>
    <latitude>30.276861919573</latitude>
    <longitude>120.17081184858</longitude>
    <campus>华家池</campus>
    <city>杭州</city>
  </location>
  <location>
    <deal_id></deal_id>
    <shop_id>096B7EC0ABBFE8D91604BEB49856BCA7</shop_id>
    <address>浙江省杭州市下城区建国北路</address>
    <latitude>30.264417615921</latitude>
    <longitude>120.18460584858</longitude>
    <campus>华家池</campus>
    <city>杭州</city>
  </location>
  <location>
    <deal_id></deal_id>
    <shop_id>605251560F22E4F8022112EB91BC59F8</shop_id>
    <address>中国计量学院生活区</address>
    <latitude>30.315372552552</latitude>
    <longitude>120.36046524183</longitude>
    <campus>华家池</campus>
    <city>杭州</city>
  </location>
  <location>
    <deal_id></deal_id>
    <shop_id>8CE19E8E45132A20EDFC6F5B1F7D88A3</shop_id>
    <address>浙江省杭州市下城区路朝晖路207号深蓝广场109室(近上塘高架)</address>
    <latitude>30.277007923136</latitude>
    <longitude>120.16948084858</longitude>
    <campus>华家池</campus>
    <city>杭州</city>
  </location>
  <location>
    <deal_id></deal_id>
    <shop_id>D44A1493A724EF10</shop_id>
    <address>下城区武林路桃花河弄7号武林药店(近武林小广场)</address>
    <latitude>30.265630722046</latitude>
    <longitude>120.16060638428</longitude>
    <campus>华家池</campus>
    <city>杭州</city>
  </location>
  <location>
    <deal_id></deal_id>
    <shop_id>8CE682C789C314ECBEBB5185D66F8816</shop_id>
    <address>浙江省杭州市学院路258号</address>
    <latitude>30.290883</latitude>
    <longitude>120.129426</longitude>
    <campus>西溪</campus>
    <city>杭州</city>
  </location>
  <location>
    <deal_id></deal_id>
    <shop_id>FB0E9EE8EFA1E570FA766F3B0347F975</shop_id>
    <address>杭州西湖区杭大路1号</address>
    <latitude>30.268102</latitude>
    <longitude>120.140751</longitude>
    <campus>西溪</campus>
    <city>杭州</city>
  </location>
  <location>
    <deal_id></deal_id>
    <shop_id>6EBF1BE3297009A4F4EDF85096CAEB0F</shop_id>
    <address>杭州市滨江区滨盛路</address>
    <latitude>30.188824668946</latitude>
    <longitude>120.16675114631</longitude>
    <campus>之江</campus>
    <city>杭州</city>
  </location>
  <location>
    <deal_id></deal_id>
    <shop_id>2DDB0CB29AB15FE7</shop_id>
    <address>庆春路227号  </address>
    <latitude>30.257579803467</latitude>
    <longitude>120.16117858887</longitude>
    <campus>华家池</campus>
    <city>杭州</city>
  </location>
  <location>
    <deal_id></deal_id>
    <shop_id>F42B5BC4C7B03FF3F74EA48376168728</shop_id>
    <address>莫干山路206号</address>
    <latitude>30.286204</latitude>
    <longitude>120.146635</longitude>
    <campus>西溪</campus>
    <city>香港</city>
  </location>
  <location>
    <deal_id></deal_id>
    <shop_id>E797FD7D6D6BD7</shop_id>
    <address>杭州上城区中河南路万松岭路口北侧</address>
    <latitude>30.226915380325</latitude>
    <longitude>120.17043269324</longitude>
    <campus>华家池</campus>
    <city>杭州</city>
  </location>
  <location>
    <deal_id></deal_id>
    <shop_id>4D0F39F980DEC8B1423088EA4EB0C1F8</shop_id>
    <address>杭州市上城区中河中路258号</address>
    <latitude>30.257858455918</latitude>
    <longitude>120.17230284858</longitude>
    <campus>华家池</campus>
    <city>杭州</city>
  </location>
  <location>
    <deal_id></deal_id>
    <shop_id>EC342FEB8BE127E1AF021770CF1A6D88</shop_id>
    <address>萧山区通惠中路669号(毗邻杭州火车南站)</address>
    <latitude>30.179128</latitude>
    <longitude>120.28520871164</longitude>
    <campus>华家池</campus>
    <city>杭州</city>
  </location>
  <location>
    <deal_id></deal_id>
    <shop_id>8E477ADDD10D8906E268119F9249D748</shop_id>
    <address>浙江省杭州市上城区解放路217号</address>
    <latitude>30.251426299043</latitude>
    <longitude>120.16936884858</longitude>
    <campus>华家池</campus>
    <city>杭州</city>
  </location>
  <location>
    <deal_id></deal_id>
    <shop_id>B4BC5F0E2E6E3655541E011C19142467</shop_id>
    <address>杭州西湖大道35号</address>
    <latitude>30.245078332655</latitude>
    <longitude>120.17623485325</longitude>
    <campus>华家池</campus>
    <city>杭州</city>
  </location>
  <location>
    <deal_id></deal_id>
    <shop_id>A0D65AE64F172C7C86890C0B26D6A082</shop_id>
    <address>凤起路中山北路交叉口。</address>
    <latitude>30.264139175415</latitude>
    <longitude>120.16911315918</longitude>
    <campus>华家池</campus>
    <city>杭州</city>
  </location>
  <location>
    <deal_id></deal_id>
    <shop_id>736A1BAE015FBDC0F1EC0C12E425FFB7</shop_id>
    <address>浙江省杭州市上城区延安路126號</address>
    <latitude>30.250568278119</latitude>
    <longitude>120.16313584858</longitude>
    <campus>华家池</campus>
    <city>杭州</city>
  </location>
  <location>
    <deal_id></deal_id>
    <shop_id>4F5B2F56A6D97072</shop_id>
    <address>杭州西湖区文一路298号物美大买场6楼(近学院路)</address>
    <latitude>30.287809371948</latitude>
    <longitude>120.12333679199</longitude>
    <campus>西溪</campus>
    <city>杭州</city>
  </location>
  <location>
    <deal_id></deal_id>
    <shop_id>AD3391521B263C2B9D71A3B96830F1AF</shop_id>
    <address>江干区双菱路(近庆春东路)</address>
    <latitude>30.255894773494</latitude>
    <longitude>120.19405305385</longitude>
    <campus>华家池</campus>
    <city>杭州</city>
  </location>
  <location>
    <deal_id></deal_id>
    <shop_id>0D779B79D168C854</shop_id>
    <address>武林路50号  </address>
    <latitude>30.259559631348</latitude>
    <longitude>120.16056823731</longitude>
    <campus>华家池</campus>
    <city>杭州</city>
  </location>
  <location>
    <deal_id></deal_id>
    <shop_id>52F65E977C2E8FDFBF2F820459D910E6</shop_id>
    <address>杭州下城区延安路凤起路口南</address>
    <latitude>30.262098599168</latitude>
    <longitude>120.16380098253</longitude>
    <campus>华家池</campus>
    <city>杭州</city>
  </location>
  <location>
    <deal_id></deal_id>
    <shop_id>59C1A87799ED70</shop_id>
    <address>杭州西湖区保俶路72号(近省府大楼西公交站)</address>
    <latitude>30.264404189014</latitude>
    <longitude>120.15028168181</longitude>
    <campus>西溪</campus>
    <city>杭州</city>
  </location>
  <location>
    <deal_id></deal_id>
    <shop_id>8B665C5F63FE98E8</shop_id>
    <address>杭州庆春路86号(近新华路)</address>
    <latitude>30.258395633051</latitude>
    <longitude>120.17569476366</longitude>
    <campus>华家池</campus>
    <city>杭州</city>
  </location>
  <location>
    <deal_id></deal_id>
    <shop_id>9DE5B70BBDFED65A</shop_id>
    <address>杭州萧山区市心路37号</address>
    <latitude>30.16418819219</latitude>
    <longitude>120.26936049365</longitude>
    <campus>华家池</campus>
    <city>杭州</city>
  </location>
  <location>
    <deal_id></deal_id>
    <shop_id>E7E5A280C2B33104</shop_id>
    <address>市心南路398号  </address>
    <latitude>30.153789520264</latitude>
    <longitude>120.26775360107</longitude>
    <campus>华家池</campus>
    <city>杭州</city>
  </location>
  <location>
    <deal_id></deal_id>
    <shop_id>88F7A60D3BC1A9A1</shop_id>
    <address>平海路58号4楼(近浣纱路)  </address>
    <latitude>30.253480911255</latitude>
    <longitude>120.16696929932</longitude>
    <campus>华家池</campus>
    <city>杭州</city>
  </location>
  <location>
    <deal_id></deal_id>
    <shop_id>32322D5300E7E636</shop_id>
    <address>延安路176号西湖大道口(西湖大道口)  </address>
    <latitude>30.246139526367</latitude>
    <longitude>120.16474914551</longitude>
    <campus>华家池</campus>
    <city>杭州</city>
  </location>
  <location>
    <deal_id></deal_id>
    <shop_id>9377D8A36C27B51DD359F73CD2681EEF</shop_id>
    <address>杭州涌金广场</address>
    <latitude>30.245549518098</latitude>
    <longitude>120.16072473773</longitude>
    <campus>华家池</campus>
    <city>杭州</city>
  </location>
  <location>
    <deal_id></deal_id>
    <shop_id>DBD8374E9D9FB7513837BCA45B12A5CC</shop_id>
    <address>拱墅区余杭塘路43-3唐尚433创意园内</address>
    <latitude>30.295407560514</latitude>
    <longitude>120.13732888297</longitude>
    <campus>西溪</campus>
    <city>杭州</city>
  </location>
  <location>
    <deal_id></deal_id>
    <shop_id>2DDB0CB29AB15FE7</shop_id>
    <address>庆春路227号  </address>
    <latitude>30.257579803467</latitude>
    <longitude>120.16117858887</longitude>
    <campus>华家池</campus>
    <city>杭州</city>
  </location>
  <location>
    <deal_id></deal_id>
    <shop_id>EEF45B2710B0499B</shop_id>
    <address>凤起路172号  </address>
    <latitude>30.264499664307</latitude>
    <longitude>120.17474365234</longitude>
    <campus>华家池</campus>
    <city>杭州</city>
  </location>
  <location>
    <deal_id></deal_id>
    <shop_id>4C9F9F273FE39327</shop_id>
    <address>仙林桥直街23号  </address>
    <latitude>30.260009765625</latitude>
    <longitude>120.17028808594</longitude>
    <campus>华家池</campus>
    <city>杭州</city>
  </location>
  <location>
    <deal_id></deal_id>
    <shop_id>2B9BED570F1DE5032256EE2BA9BA4C90</shop_id>
    <address>北京市朝阳区建外大街建华南路十七号</address>
    <latitude>39.906463623047</latitude>
    <longitude>116.4493560791</longitude>
    <campus>紫金港</campus>
    <city>北京</city>
  </location>
  <location>
    <deal_id></deal_id>
    <shop_id>8740266623B315CE9968B4B57D1F495A</shop_id>
    <address>海淀区海淀北一街2号</address>
    <latitude>39.98372421805</latitude>
    <longitude>116.31359812834</longitude>
    <campus>紫金港</campus>
    <city>北京</city>
  </location>
  <location>
    <deal_id></deal_id>
    <shop_id>F1DF5BD1A3246AB4CD17083CD6E6B76C</shop_id>
    <address>北京海淀区昆明湖南路9号</address>
    <latitude>39.964405059815</latitude>
    <longitude>116.27322387695</longitude>
    <campus>紫金港</campus>
    <city>北京</city>
  </location>
  <location>
    <deal_id></deal_id>
    <shop_id>990348168A4D4E31BAD7D142A188B96F</shop_id>
    <address>上海市浦东新区浦东大道2554号</address>
    <latitude>31.259295</latitude>
    <longitude>121.562769</longitude>
    <campus>华家池</campus>
    <city>上海</city>
  </location>
  <location>
    <deal_id></deal_id>
    <shop_id>7908826B68A88596</shop_id>
    <address>上海杨浦区国宾路36号万达广场B座5楼(近邯郸路)</address>
    <latitude>31.300512872434</latitude>
    <longitude>121.51314402331</longitude>
    <campus>华家池</campus>
    <city>上海</city>
  </location>
  <location>
    <deal_id></deal_id>
    <shop_id>F4091DA1BD1C7A0C</shop_id>
    <address>东方一路华港花园20-24号3楼  </address>
    <latitude>23.131669998169</latitude>
    <longitude>113.35842895508</longitude>
    <campus>之江</campus>
    <city>广州</city>
  </location>
  <location>
    <deal_id></deal_id>
    <shop_id>CB108A71F7D27FBD727D2C4EBEB48A4D</shop_id>
    <address>北京市朝阳区将台路6号</address>
    <latitude>39.976847465524</latitude>
    <longitude>116.4787673347</longitude>
    <campus>紫金港</campus>
    <city>北京</city>
  </location>
  <location>
    <deal_id></deal_id>
    <shop_id>CAA2CE73AEF09FACB1EADA1DE22D3B94</shop_id>
    <address>上海定西路1118号</address>
    <latitude>31.210898142044</latitude>
    <longitude>121.42782977202</longitude>
    <campus>华家池</campus>
    <city>上海</city>
  </location>
  <location>
    <deal_id></deal_id>
    <shop_id>4CCC5EB9AD8B7F52</shop_id>
    <address>上海普陀区真光路1288号(近梅川路)</address>
    <latitude>31.2457267881</latitude>
    <longitude>121.383318848</longitude>
    <campus>华家池</campus>
    <city>上海</city>
  </location>
  <location>
    <deal_id></deal_id>
    <shop_id>E5B19B41826A95DD150BFF7DD1BF790D</shop_id>
    <address>中山东路145号</address>
    <latitude>32.04174041748</latitude>
    <longitude>118.79103851318</longitude>
    <campus>紫金港</campus>
    <city>南京</city>
  </location>
  <location>
    <deal_id></deal_id>
    <shop_id>AD5A299E37ABC92161F45A45F3E61B7C</shop_id>
    <address>北京市宣武门外大街甲一号</address>
    <latitude>39.898427951366</latitude>
    <longitude>116.37328834446</longitude>
    <campus>紫金港</campus>
    <city>北京</city>
  </location>
  <location>
    <deal_id></deal_id>
    <shop_id>D16DB12C4B4C523D4FD051CA1FD62945</shop_id>
    <address>上海静安区康定路西康路口</address>
    <latitude>31.2337965</latitude>
    <longitude>121.4474485</longitude>
    <campus>华家池</campus>
    <city>上海</city>
  </location>
  <location>
    <deal_id></deal_id>
    <shop_id>8740266623B315CE9968B4B57D1F495A</shop_id>
    <address>海淀区海淀北一街2号</address>
    <latitude>39.98372421805</latitude>
    <longitude>116.31359812834</longitude>
    <campus>紫金港</campus>
    <city>北京</city>
  </location>
  <location>
    <deal_id></deal_id>
    <shop_id>4B672ED12AACD5438D34229E20F37A7A</shop_id>
    <address>中央路19号</address>
    <latitude>32.062389</latitude>
    <longitude>118.783313</longitude>
    <campus>紫金港</campus>
    <city>南京</city>
  </location>
  <location>
    <deal_id></deal_id>
    <shop_id>6030A7B902D8F071C9EC013045F19065</shop_id>
    <address>浙江省杭州市西湖区文二西路718号</address>
    <latitude>30.279611695773</latitude>
    <longitude>120.08735688297</longitude>
    <campus>紫金港</campus>
    <city>杭州</city>
  </location>
  <location>
    <deal_id></deal_id>
    <shop_id>AF43C31DFCA830FE</shop_id>
    <address>环市东路496号广发花园大厦3-4楼  </address>
    <latitude>23.134000778198</latitude>
    <longitude>113.30869293213</longitude>
    <campus>之江</campus>
    <city>广州</city>
  </location>
  <location>
    <deal_id></deal_id>
    <shop_id>45B191D41EE65D131C159B6C4766D031</shop_id>
    <address>二环路西一段南</address>
    <latitude>30.640458320857</latitude>
    <longitude>104.02724273533</longitude>
    <campus>紫金港</campus>
    <city>成都</city>
  </location>
  <location>
    <deal_id></deal_id>
    <shop_id>79DC5570DA6F3490</shop_id>
    <address>宝安南路3044号天地大厦左侧  </address>
    <latitude>22.553030014038</latitude>
    <longitude>114.10997772217</longitude>
    <campus>之江</campus>
    <city>深圳</city>
  </location>
  <location>
    <deal_id></deal_id>
    <shop_id>2ECC2FBFADCABF0A38CB6EFF493271DB</shop_id>
    <address>福田区车公庙</address>
    <latitude>22.520936965942</latitude>
    <longitude>114.03198242188</longitude>
    <campus>之江</campus>
    <city>深圳</city>
  </location>
  <location>
    <deal_id></deal_id>
    <shop_id>31F5EEBBBAC2164C</shop_id>
