<?xml version="1.0" encoding="UTF-8"?>
<locations>
  <location>
    <deal_id>hobpwqwg</deal_id>
    <shop_id></shop_id>
    <address>富春路701号万象城B1楼B1C01铺</address>
    <latitude>30.2435</latitude>
    <longitude>120.2157</longitude>
    <campus>华家池</campus>
    <city>杭州</city>
  </location>
  <location>
    <deal_id>v5zdqfuu</deal_id>
    <shop_id></shop_id>
    <address>上城区东坡路10-3号(近东坡大世界)</address>
    <latitude>30.2528</latitude>
    <longitude>120.1636</longitude>
    <campus>华家池</campus>
    <city>杭州</city>
  </location>
  <location>
    <deal_id>2cewg2ig</deal_id>
    <shop_id></shop_id>
    <address>黄姑山路3号</address>
    <latitude>30.2725</latitude>
    <longitude>120.1339</longitude>
    <campus>西溪</campus>
    <city>杭州</city>
  </location>
  <location>
    <deal_id>5xjopoos</deal_id>
    <shop_id></shop_id>
    <address>湖墅南路412号</address>
    <latitude>30.2903</latitude>
    <longitude>120.149</longitude>
    <campus>西溪</campus>
    <city>杭州</city>
  </location>
  <location>
    <deal_id>5xjopoos</deal_id>
    <shop_id></shop_id>
    <address>文三西路638号</address>
    <latitude>30.2755</latitude>
    <longitude>120.0954</longitude>
    <campus>玉泉</campus>
    <city>杭州</city>
  </location>
  <location>
    <deal_id>36ast7no</deal_id>
    <shop_id></shop_id>
    <address>中山北路399号(近百井坊巷)</address>
    <latitude>30.2673</latitude>
    <longitude>120.1677</longitude>
    <campus>华家池</campus>
    <city>杭州</city>
  </location>
  <location>
    <deal_id>36ast7no</deal_id>
    <shop_id></shop_id>
    <address>潮王路258号红石中央大厦2楼</address>
    <latitude>30.285</latitude>
    <longitude>120.1515</longitude>
    <campus>西溪</campus>
    <city>杭州</city>
  </location>
  <location>
    <deal_id>f3thj32d</deal_id>
    <shop_id></shop_id>
    <address>学院路205号(近文一路)</address>
    <latitude>30.2881</latitude>
    <longitude>120.1288</longitude>
    <campus>西溪</campus>
    <city>杭州</city>
  </location>
  <location>
    <deal_id>f3thj32d</deal_id>
    <shop_id></shop_id>
    <address>湖墅南路信义坊商街2号</address>
    <latitude>30.2932</latitude>
    <longitude>120.1454</longitude>
    <campus>西溪</campus>
    <city>杭州</city>
  </location>
  <location>
    <deal_id>f3thj32d</deal_id>
    <shop_id></shop_id>
    <address>湖州街与小河路交叉口运河天地</address>
    <latitude>30.3234</latitude>
    <longitude>120.1371</longitude>
    <campus>西溪</campus>
    <city>杭州</city>
  </location>
  <location>
    <deal_id>f3thj32d</deal_id>
    <shop_id></shop_id>
    <address>下沙文泽路99号福雷德广场2B04号</address>
    <latitude>30.3167</latitude>
    <longitude>120.3483</longitude>
    <campus>华家池</campus>
    <city>杭州</city>
  </location>
  <location>
    <deal_id>f3thj32d</deal_id>
    <shop_id></shop_id>
    <address>金城路333号开元加州阳光3楼B区</address>
    <latitude>30.1815</latitude>
    <longitude>120.2524</longitude>
    <campus>华家池</campus>
    <city>杭州</city>
  </location>
  <location>
    <deal_id>f3thj32d</deal_id>
    <shop_id></shop_id>
    <address>武林路291号日月光华商厦4楼(近狮虎桥路)</address>
    <latitude>30.2656</latitude>
    <longitude>120.1601</longitude>
    <campus>西溪</campus>
    <city>杭州</city>
  </location>
  <location>
    <deal_id>f3thj32d</deal_id>
    <shop_id></shop_id>
    <address>文三路535号菜茵达大厦3楼(万塘路口)</address>
    <latitude>30.2757</latitude>
    <longitude>120.1239</longitude>
    <campus>西溪</campus>
    <city>杭州</city>
  </location>
  <location>
    <deal_id>f3thj32d</deal_id>
    <shop_id></shop_id>
    <address>钱王大街万华广场4楼</address>
    <latitude>30.2207</latitude>
    <longitude>119.703</longitude>
    <campus>紫金港</campus>
    <city>杭州</city>
  </location>
  <location>
    <deal_id>f3thj32d</deal_id>
    <shop_id></shop_id>
    <address>塘栖镇水南街7号</address>
    <latitude>30.4726</latitude>
    <longitude>120.1884</longitude>
    <campus>紫金港</campus>
    <city>杭州</city>
  </location>
  <location>
    <deal_id>f3thj32d</deal_id>
    <shop_id></shop_id>
    <address>古墩路658号富源商务酒店1楼（申花路口</address>
    <latitude>30.306</latitude>
    <longitude>120.0977</longitude>
    <campus>紫金港</campus>
    <city>杭州</city>
  </location>
  <location>
    <deal_id>f3thj32d</deal_id>
    <shop_id></shop_id>
    <address>古墩路北端铭雅苑48-16</address>
    <latitude>30.3374</latitude>
    <longitude>120.0854</longitude>
    <campus>紫金港</campus>
    <city>杭州</city>
  </location>
  <location>
    <deal_id>f3thj32d</deal_id>
    <shop_id></shop_id>
    <address>春波路1576号乐通科技园</address>
    <latitude>30.1896</latitude>
    <longitude>120.2184</longitude>
    <campus>华家池</campus>
    <city>杭州</city>
  </location>
  <location>
    <deal_id>v9nw1zuj</deal_id>
    <shop_id></shop_id>
    <address>古墩路701号紫金广场B座5楼(红星美凯龙)</address>
    <latitude>30.3064</latitude>
    <longitude>120.0968</longitude>
    <campus>紫金港</campus>
    <city>杭州</city>
  </location>
  <location>
    <deal_id>eyf17rfe</deal_id>
    <shop_id></shop_id>
    <address>延安路595浙江大酒店5楼(近杭州大厦)</address>
    <latitude>30.2688</latitude>
    <longitude>120.1626</longitude>
    <campus>华家池</campus>
    <city>杭州</city>
  </location>
  <location>
    <deal_id>d23ihslc</deal_id>
    <shop_id></shop_id>
    <address>武林路291号3楼</address>
    <latitude>30.2651</latitude>
    <longitude>120.1607</longitude>
    <campus>华家池</campus>
    <city>杭州</city>
  </location>
  <location>
    <deal_id>d23ihslc</deal_id>
    <shop_id></shop_id>
    <address>文晖路297号</address>
    <latitude>30.28</latitude>
    <longitude>120.1657</longitude>
    <campus>华家池</campus>
    <city>杭州</city>
  </location>
  <location>
    <deal_id>d23ihslc</deal_id>
    <shop_id></shop_id>
    <address>新塘路33号B楼二层</address>
    <latitude>30.2603</latitude>
    <longitude>120.2076</longitude>
    <campus>华家池</campus>
    <city>杭州</city>
  </location>
  <location>
    <deal_id>d23ihslc</deal_id>
    <shop_id></shop_id>
    <address>莫干山路491号（之江饭店）</address>
    <latitude>30.2858</latitude>
    <longitude>120.1466</longitude>
    <campus>西溪</campus>
    <city>杭州</city>
  </location>
  <location>
    <deal_id>d23ihslc</deal_id>
    <shop_id></shop_id>
    <address>庆春路65号第一，第二层</address>
    <latitude>30.257</latitude>
    <longitude>120.1815</longitude>
    <campus>华家池</campus>
    <city>杭州</city>
  </location>
  <location>
    <deal_id>d23ihslc</deal_id>
    <shop_id></shop_id>
    <address>白沙泉1号</address>
    <latitude>30.2627</latitude>
    <longitude>120.1358</longitude>
    <campus>西溪</campus>
    <city>杭州</city>
  </location>
  <location>
    <deal_id>d23ihslc</deal_id>
    <shop_id></shop_id>
    <address>东坡路54号</address>
    <latitude>30.2555</latitude>
    <longitude>120.1633</longitude>
    <campus>华家池</campus>
    <city>杭州</city>
  </location>
  <location>
    <deal_id>d23ihslc</deal_id>
    <shop_id></shop_id>
    <address>秋涛路288号</address>
    <latitude>30.2373</latitude>
    <longitude>120.1927</longitude>
    <campus>华家池</campus>
    <city>杭州</city>
  </location>
  <location>
    <deal_id>d23ihslc</deal_id>
    <shop_id></shop_id>
    <address>城站广场8号</address>
    <latitude>30.2439</latitude>
    <longitude>120.1817</longitude>
    <campus>华家池</campus>
    <city>杭州</city>
  </location>
  <location>
    <deal_id>d23ihslc</deal_id>
    <shop_id></shop_id>
    <address>建国北路240号诚信大厦底层</address>
    <latitude>30.2631</latitude>
    <longitude>120.1815</longitude>
    <campus>华家池</campus>
    <city>杭州</city>
  </location>
  <location>
    <deal_id>d23ihslc</deal_id>
    <shop_id></shop_id>
    <address>香积寺路15号</address>
    <latitude>30.3067</latitude>
    <longitude>120.1747</longitude>
    <campus>华家池</campus>
    <city>杭州</city>
  </location>
  <location>
    <deal_id>d23ihslc</deal_id>
    <shop_id></shop_id>
    <address>绍兴路168号201室（和平大厦二楼）</address>
    <latitude>30.2906</latitude>
    <longitude>120.1752</longitude>
    <campus>华家池</campus>
    <city>杭州</city>
  </location>
  <location>
    <deal_id>d23ihslc</deal_id>
    <shop_id></shop_id>
    <address>青春坊底层1-2-1号（庆春路与中河东路交叉口）</address>
    <latitude>30.2597</latitude>
    <longitude>120.1743</longitude>
    <campus>华家池</campus>
    <city>杭州</city>
  </location>
  <location>
    <deal_id>d23ihslc</deal_id>
    <shop_id></shop_id>
    <address>朝晖路198号1-2楼</address>
    <latitude>30.2759</latitude>
    <longitude>120.1686</longitude>
    <campus>华家池</campus>
    <city>杭州</city>
  </location>
  <location>
    <deal_id>d23ihslc</deal_id>
    <shop_id></shop_id>
    <address>体育场路261号华润西子中心</address>
    <latitude>30.2689</latitude>
    <longitude>120.1682</longitude>
    <campus>华家池</campus>
    <city>杭州</city>
  </location>
  <location>
    <deal_id>d23ihslc</deal_id>
    <shop_id></shop_id>
    <address>湖墅南路260号第三层</address>
    <latitude>30.2847</latitude>
    <longitude>120.1524</longitude>
    <campus>西溪</campus>
    <city>杭州</city>
  </location>
  <location>
    <deal_id>d23ihslc</deal_id>
    <shop_id></shop_id>
    <address>大关苑4号1-2层</address>
    <latitude>30.3029</latitude>
    <longitude>120.1553</longitude>
    <campus>西溪</campus>
    <city>杭州</city>
  </location>
  <location>
    <deal_id>d23ihslc</deal_id>
    <shop_id></shop_id>
    <address>天城路155号-1至155-4号（杭州湾大酒店）</address>
    <latitude>30.2852</latitude>
    <longitude>120.1997</longitude>
    <campus>华家池</campus>
    <city>杭州</city>
  </location>
  <location>
    <deal_id>d23ihslc</deal_id>
    <shop_id></shop_id>
    <address>庆春东路66号二楼</address>
    <latitude>30.258</latitude>
    <longitude>120.1925</longitude>
    <campus>华家池</campus>
    <city>杭州</city>
  </location>
  <location>
    <deal_id>d23ihslc</deal_id>
    <shop_id></shop_id>
    <address>江南大道588号恒鑫大厦裙楼二层</address>
    <latitude>30.2012</latitude>
    <longitude>120.2021</longitude>
    <campus>华家池</campus>
    <city>杭州</city>
  </location>
  <location>
    <deal_id>d23ihslc</deal_id>
    <shop_id></shop_id>
    <address>北山路28号</address>
    <latitude>30.2593</latitude>
    <longitude>120.1504</longitude>
    <campus>西溪</campus>
    <city>杭州</city>
  </location>
  <location>
    <deal_id>d23ihslc</deal_id>
    <shop_id></shop_id>
    <address>北山路65号（香格里拉大酒店对面）</address>
    <latitude>30.2549</latitude>
    <longitude>120.1426</longitude>
    <campus>西溪</campus>
    <city>杭州</city>
  </location>
  <location>
    <deal_id>d23ihslc</deal_id>
    <shop_id></shop_id>
    <address>黄龙路5号恒励大厦二楼</address>
    <latitude>30.2689</latitude>
    <longitude>120.1368</longitude>
    <campus>西溪</campus>
    <city>杭州</city>
  </location>
  <location>
    <deal_id>d23ihslc</deal_id>
    <shop_id></shop_id>
    <address>文一路272号（梁山大酒店）</address>
    <latitude>30.2875</latitude>
    <longitude>120.1258</longitude>
    <campus>西溪</campus>
    <city>杭州</city>
  </location>
  <location>
    <deal_id>d23ihslc</deal_id>
    <shop_id></shop_id>
    <address>古墩路387号金桂大厦102、202室</address>
    <latitude>30.2813</latitude>
    <longitude>120.0992</longitude>
    <campus>玉泉</campus>
    <city>杭州</city>
  </location>
  <location>
    <deal_id>d23ihslc</deal_id>
    <shop_id></shop_id>
    <address>文三路杭州城市规划设计研究院办公楼一、二层</address>
    <latitude>30.2764</latitude>
    <longitude>120.1291</longitude>
    <campus>西溪</campus>
    <city>杭州</city>
  </location>
  <location>
    <deal_id>d23ihslc</deal_id>
    <shop_id></shop_id>
    <address>教工路195号（百瑞国际大酒店）</address>
    <latitude>30.2893</latitude>
    <longitude>120.1354</longitude>
    <campus>西溪</campus>
    <city>杭州</city>
  </location>
  <location>
    <deal_id>d23ihslc</deal_id>
    <shop_id></shop_id>
    <address>下沙经济开发区四号街15-2号</address>
    <latitude>30.3153</latitude>
    <longitude>120.3383</longitude>
    <campus>华家池</campus>
    <city>杭州</city>
  </location>
  <location>
    <deal_id>d23ihslc</deal_id>
    <shop_id></shop_id>
    <address>市心中路808号1楼商铺</address>
    <latitude>30.1791</latitude>
    <longitude>120.2677</longitude>
    <campus>华家池</campus>
    <city>杭州</city>
  </location>
  <location>
    <deal_id>d23ihslc</deal_id>
    <shop_id></shop_id>
    <address>古墩路656号紫金港商务大厦2楼</address>
    <latitude>30.3044</latitude>
    <longitude>120.098</longitude>
    <campus>紫金港</campus>
    <city>杭州</city>
  </location>
  <location>
    <deal_id>d23ihslc</deal_id>
    <shop_id></shop_id>
    <address>凯旋路451号</address>
    <latitude>30.253</latitude>
    <longitude>120.2133</longitude>
    <campus>华家池</campus>
    <city>杭州</city>
  </location>
  <location>
    <deal_id>d23ihslc</deal_id>
    <shop_id></shop_id>
    <address>萧山区萧绍路丽都花园5-10号 </address>
    <latitude>30.1635</latitude>
    <longitude>120.2741</longitude>
    <campus>华家池</campus>
    <city>杭州</city>
  </location>
  <location>
    <deal_id>d23ihslc</deal_id>
    <shop_id></shop_id>
    <address>凤起路200号（精品商厦3楼）</address>
    <latitude>30.264</latitude>
    <longitude>120.1743</longitude>
    <campus>华家池</campus>
    <city>杭州</city>
  </location>
  <location>
    <deal_id>h5o2zc4f</deal_id>
    <shop_id></shop_id>
    <address>东坡路8号3楼(近邮电路)</address>
    <latitude>30.252</latitude>
    <longitude>120.1636</longitude>
    <campus>华家池</campus>
    <city>杭州</city>
  </location>
  <location>
    <deal_id>h5o2zc4f</deal_id>
    <shop_id></shop_id>
    <address>文二路328号富丽科技大厦内(近学院路)</address>
    <latitude>30.2822</latitude>
    <longitude>120.125</longitude>
    <campus>西溪</campus>
    <city>杭州</city>
  </location>
  <location>
    <deal_id>mp65cysy</deal_id>
    <shop_id></shop_id>
    <address>延安路101号百井坊巷</address>
    <latitude>30.2439</latitude>
    <longitude>120.1648</longitude>
    <campus>华家池</campus>
    <city>杭州</city>
  </location>
  <location>
    <deal_id>mp65cysy</deal_id>
    <shop_id></shop_id>
    <address>上塘路338号</address>
    <latitude>30.293</latitude>
    <longitude>120.1618</longitude>
    <campus>西溪</campus>
    <city>杭州</city>
  </location>
  <location>
    <deal_id>mp65cysy</deal_id>
    <shop_id></shop_id>
    <address>双菱路106号富士温泉内(近庆春路)</address>
    <latitude>30.2583</latitude>
    <longitude>120.1962</longitude>
    <campus>华家池</campus>
    <city>杭州</city>
  </location>
  <location>
    <deal_id>mp65cysy</deal_id>
    <shop_id></shop_id>
    <address>丰潭路278号(近文二西路)</address>
    <latitude>30.2829</latitude>
    <longitude>120.1094</longitude>
    <campus>玉泉</campus>
    <city>杭州</city>
  </location>
  <location>
    <deal_id>whmj9v7o</deal_id>
    <shop_id></shop_id>
    <address>庆春东路25号(近秋涛路)</address>
    <latitude>30.2576</latitude>
    <longitude>120.199</longitude>
    <campus>华家池</campus>
    <city>杭州</city>
  </location>
  <location>
    <deal_id>whmj9v7o</deal_id>
    <shop_id></shop_id>
    <address>湖墅南路375号(近夹城巷路)</address>
    <latitude>30.2885</latitude>
    <longitude>120.1503</longitude>
    <campus>西溪</campus>
    <city>杭州</city>
  </location>
  <location>
    <deal_id>whmj9v7o</deal_id>
    <shop_id></shop_id>
    <address>新华路177号(凤起路口)</address>
    <latitude>30.2641</latitude>
    <longitude>120.1759</longitude>
    <campus>华家池</campus>
    <city>杭州</city>
  </location>
  <location>
    <deal_id>whmj9v7o</deal_id>
    <shop_id></shop_id>
    <address>登云路240号(近和睦新村)</address>
    <latitude>30.3082</latitude>
    <longitude>120.1262</longitude>
    <campus>西溪</campus>
    <city>杭州</city>
  </location>
  <location>
    <deal_id>whmj9v7o</deal_id>
    <shop_id></shop_id>
    <address>文一西路159号(近竞舟路)</address>
    <latitude>30.2864</latitude>
    <longitude>120.1057</longitude>
    <campus>玉泉</campus>
    <city>杭州</city>
  </location>
  <location>
    <deal_id>whmj9v7o</deal_id>
    <shop_id></shop_id>
    <address>文三西路康乐新村香港城6幢275号(近古墩路)</address>
    <latitude>30.2759</latitude>
    <longitude>120.1049</longitude>
    <campus>玉泉</campus>
    <city>杭州</city>
  </location>
  <location>
    <deal_id>whmj9v7o</deal_id>
    <shop_id></shop_id>
    <address>香积寺路71-2号(再行路口)</address>
    <latitude>30.3072</latitude>
    <longitude>120.1703</longitude>
    <campus>华家池</campus>
    <city>杭州</city>
  </location>
  <location>
    <deal_id>whmj9v7o</deal_id>
    <shop_id></shop_id>
    <address>体育场路147号(浙江日报社对面)</address>
    <latitude>30.2696</latitude>
    <longitude>120.1752</longitude>
    <campus>华家池</campus>
    <city>杭州</city>
  </location>
  <location>
    <deal_id>whmj9v7o</deal_id>
    <shop_id></shop_id>
    <address>清泰街378号</address>
    <latitude>30.2474</latitude>
    <longitude>120.177</longitude>
    <campus>华家池</campus>
    <city>杭州</city>
  </location>
  <location>
    <deal_id>whmj9v7o</deal_id>
    <shop_id></shop_id>
    <address>建国北路450号(近宝善桥)</address>
    <latitude>30.2685</latitude>
    <longitude>120.1806</longitude>
    <campus>华家池</campus>
    <city>杭州</city>
  </location>
  <location>
    <deal_id>whmj9v7o</deal_id>
    <shop_id></shop_id>
    <address>杭大路40-1号</address>
    <latitude>30.2702</latitude>
    <longitude>120.1411</longitude>
    <campus>西溪</campus>
    <city>杭州</city>
  </location>
  <location>
    <deal_id>whmj9v7o</deal_id>
    <shop_id></shop_id>
    <address>保俶路170号(近西溪路)</address>
    <latitude>30.2683</latitude>
    <longitude>120.1469</longitude>
    <campus>西溪</campus>
    <city>杭州</city>
  </location>
  <location>
    <deal_id>whmj9v7o</deal_id>
    <shop_id></shop_id>
    <address>太平门直街146号(双菱路口)</address>
    <latitude>30.2597</latitude>
    <longitude>120.196</longitude>
    <campus>华家池</campus>
    <city>杭州</city>
  </location>
  <location>
    <deal_id>whmj9v7o</deal_id>
    <shop_id></shop_id>
    <address>体育场路412-414号(近甜丫丫西点)</address>
    <latitude>30.2706</latitude>
    <longitude>120.1588</longitude>
    <campus>西溪</campus>
    <city>杭州</city>
  </location>
  <location>
    <deal_id>whmj9v7o</deal_id>
    <shop_id></shop_id>
    <address>艮山西路216-1号(近闸弄口)</address>
    <latitude>30.2762</latitude>
    <longitude>120.1954</longitude>
    <campus>华家池</campus>
    <city>杭州</city>
  </location>
  <location>
    <deal_id>whmj9v7o</deal_id>
    <shop_id></shop_id>
    <address>近江南路80号</address>
    <latitude>30.2313</latitude>
    <longitude>120.2031</longitude>
    <campus>华家池</campus>
    <city>杭州</city>
  </location>
  <location>
    <deal_id>whmj9v7o</deal_id>
    <shop_id></shop_id>
    <address>城厢市心南店14-16号</address>
    <latitude>30.1583</latitude>
    <longitude>120.2689</longitude>
    <campus>华家池</campus>
    <city>杭州</city>
  </location>
  <location>
    <deal_id>whmj9v7o</deal_id>
    <shop_id></shop_id>
    <address>莲花街250号</address>
    <latitude>30.2529</latitude>
    <longitude>120.2132</longitude>
    <campus>华家池</campus>
    <city>杭州</city>
  </location>
  <location>
    <deal_id>whmj9v7o</deal_id>
    <shop_id></shop_id>
    <address>刀茅巷71号</address>
    <latitude>30.2604</latitude>
    <longitude>120.1864</longitude>
    <campus>华家池</campus>
    <city>杭州</city>
  </location>
  <location>
    <deal_id>whmj9v7o</deal_id>
    <shop_id></shop_id>
    <address>孩儿巷165-1号</address>
    <latitude>30.2618</latitude>
    <longitude>120.1653</longitude>
    <campus>华家池</campus>
    <city>杭州</city>
  </location>
  <location>
    <deal_id>ccg6</deal_id>
    <shop_id></shop_id>
    <address>环城西路26号(青少年宫对面)</address>
    <latitude>30.2618</latitude>
    <longitude>120.158</longitude>
    <campus>西溪</campus>
    <city>杭州</city>
  </location>
  <location>
    <deal_id>ccg6</deal_id>
    <shop_id></shop_id>
    <address>马塍路12号(近文三路)</address>
    <latitude>30.2765</latitude>
    <longitude>120.148</longitude>
    <campus>西溪</campus>
    <city>杭州</city>
  </location>
  <location>
    <deal_id>ccg6</deal_id>
    <shop_id></shop_id>
    <address>屏风街29号(中大广场旁)</address>
    <latitude>30.267</latitude>
    <longitude>120.1694</longitude>
    <campus>华家池</campus>
    <city>杭州</city>
  </location>
  <location>
    <deal_id>zbcsbtze</deal_id>
    <shop_id></shop_id>
    <address>延安路447号(近凤起路)</address>
    <latitude>30.2633</latitude>
    <longitude>120.1635</longitude>
    <campus>华家池</campus>
    <city>杭州</city>
  </location>
  <location>
    <deal_id>ie7xrrjv</deal_id>
    <shop_id></shop_id>
    <address>延安路346号米兰假日酒店2楼(近Me&amp;city)</address>
    <latitude>30.2598</latitude>
    <longitude>120.1647</longitude>
    <campus>华家池</campus>
    <city>杭州</city>
  </location>
  <location>
    <deal_id>pcmlljko</deal_id>
    <shop_id></shop_id>
    <address>文一路132号</address>
    <latitude>30.2887</latitude>
    <longitude>120.1357</longitude>
    <campus>西溪</campus>
    <city>杭州</city>
  </location>
  <location>
    <deal_id>pcmlljko</deal_id>
    <shop_id></shop_id>
    <address>下沙学林街1198号</address>
    <latitude>30.3156</latitude>
    <longitude>120.3362</longitude>
    <campus>华家池</campus>
    <city>杭州</city>
  </location>
  <location>
    <deal_id>pcmlljko</deal_id>
    <shop_id></shop_id>
    <address>双菱路116号瑞嘉酒店二楼（太平门直街路口）</address>
    <latitude>30.2591</latitude>
    <longitude>120.1955</longitude>
    <campus>华家池</campus>
    <city>杭州</city>
  </location>
  <location>
    <deal_id>powycqx4</deal_id>
    <shop_id></shop_id>
    <address>高银街29号(近中河高架)</address>
    <latitude>30.2404</latitude>
    <longitude>120.1709</longitude>
    <campus>华家池</campus>
    <city>杭州</city>
  </location>
  <location>
    <deal_id>4vs8qgwd</deal_id>
    <shop_id></shop_id>
    <address>古墩路588号印象城购物中心1楼(近余杭塘路)</address>
    <latitude>30.293</latitude>
    <longitude>120.0987</longitude>
    <campus>紫金港</campus>
    <city>杭州</city>
  </location>
  <location>
    <deal_id>4vs8qgwd</deal_id>
    <shop_id></shop_id>
    <address>景昙路18-21号银泰百货6楼(近庆春东路)</address>
    <latitude>30.2592</latitude>
    <longitude>120.2052</longitude>
    <campus>华家池</campus>
    <city>杭州</city>
  </location>
  <location>
    <deal_id>4vs8qgwd</deal_id>
    <shop_id></shop_id>
    <address>解放路251号解百商厦B座2楼(近湖滨路)</address>
    <latitude>30.2676</latitude>
    <longitude>120.149</longitude>
    <campus>西溪</campus>
    <city>杭州</city>
  </location>
  <location>
    <deal_id>4vs8qgwd</deal_id>
    <shop_id></shop_id>
    <address>临安钱王大街855号万华广场4楼</address>
    <latitude>30.2676</latitude>
    <longitude>120.149</longitude>
    <campus>西溪</campus>
    <city>杭州</city>
  </location>
  <location>
    <deal_id>4vs8qgwd</deal_id>
    <shop_id></shop_id>
    <address>延安路98号银泰百货2楼(近吴山广场)</address>
    <latitude>30.2435</latitude>
    <longitude>120.1652</longitude>
    <campus>华家池</campus>
    <city>杭州</city>
  </location>
  <location>
    <deal_id>4vs8qgwd</deal_id>
    <shop_id></shop_id>
    <address>下城区东新路155号</address>
    <latitude>30.2901</latitude>
    <longitude>120.1788</longitude>
    <campus>华家池</campus>
    <city>杭州</city>
  </location>
  <location>
    <deal_id>4vs8qgwd</deal_id>
    <shop_id></shop_id>
    <address>桐庐县迎春南路666号利时百货4楼</address>
    <latitude>29.7977</latitude>
    <longitude>119.6853</longitude>
    <campus>之江</campus>
    <city>杭州</city>
  </location>
  <location>
    <deal_id>yfchhsgt</deal_id>
    <shop_id></shop_id>
    <address>余杭塘路43-3（靠近信义坊）</address>
    <latitude>30.2931</latitude>
    <longitude>120.1384</longitude>
    <campus>西溪</campus>
    <city>杭州</city>
  </location>
  <location>
    <deal_id>sae8ojly</deal_id>
    <shop_id></shop_id>
    <address>天城路176号（文辉大桥东，神州白云大厦2楼）</address>
    <latitude>30.2834</latitude>
    <longitude>120.1901</longitude>
    <campus>华家池</campus>
    <city>杭州</city>
  </location>
  <location>
    <deal_id>rtbjfe20</deal_id>
    <shop_id></shop_id>
    <address>武林广场21号杭州大厦A座6楼</address>
    <latitude>30.274</latitude>
    <longitude>120.155</longitude>
    <campus>西溪</campus>
    <city>杭州</city>
  </location>
  <location>
    <deal_id>ym118ps3</deal_id>
    <shop_id></shop_id>
    <address>延安路447号(近凤起路)</address>
    <latitude>30.2633</latitude>
    <longitude>120.1635</longitude>
    <campus>华家池</campus>
    <city>杭州</city>
  </location>
  <location>
    <deal_id>8o0ssc6g</deal_id>
    <shop_id></shop_id>
    <address>天城路176号（文辉大桥东，神州白云大厦2楼）</address>
    <latitude>30.2834</latitude>
    <longitude>120.1901</longitude>
    <campus>华家池</campus>
    <city>杭州</city>
  </location>
  <location>
    <deal_id>p1qluddy</deal_id>
    <shop_id></shop_id>
    <address>上城区河坊街出口</address>
    <latitude>30.2395</latitude>
    <longitude>120.1724</longitude>
    <campus>华家池</campus>
    <city>杭州</city>
  </location>
  <location>
    <deal_id>kgbho3qq</deal_id>
    <shop_id></shop_id>
    <address>老浙大横路31号（近庆春路横河公园）</address>
    <latitude>30.2538</latitude>
    <longitude>120.1848</longitude>
    <campus>华家池</campus>
    <city>杭州</city>
  </location>
  <location>
    <deal_id>7gxffyje</deal_id>
    <shop_id></shop_id>
    <address>延安路101号百井坊巷</address>
    <latitude>30.2439</latitude>
    <longitude>120.1648</longitude>
    <campus>华家池</campus>
    <city>杭州</city>
  </location>
  <location>
    <deal_id>7gxffyje</deal_id>
    <shop_id></shop_id>
    <address>上塘路338号</address>
    <latitude>30.293</latitude>
    <longitude>120.1618</longitude>
    <campus>西溪</campus>
    <city>杭州</city>
  </location>
  <location>
    <deal_id>7gxffyje</deal_id>
    <shop_id></shop_id>
    <address>双菱路106号富士温泉内(近庆春路)</address>
    <latitude>30.2583</latitude>
    <longitude>120.1962</longitude>
    <campus>华家池</campus>
    <city>杭州</city>
  </location>
  <location>
    <deal_id>7gxffyje</deal_id>
    <shop_id></shop_id>
    <address>丰潭路278号(近文二西路)</address>
    <latitude>30.2829</latitude>
    <longitude>120.1094</longitude>
    <campus>玉泉</campus>
    <city>杭州</city>
  </location>
  <location>
    <deal_id>bg7znz1z</deal_id>
    <shop_id></shop_id>
    <address>黄姑山路38号(颐高旗舰广场东门)</address>
    <latitude>30.2758</latitude>
    <longitude>120.1337</longitude>
    <campus>西溪</campus>
    <city>杭州</city>
  </location>
  <location>
    <deal_id>bg7znz1z</deal_id>
    <shop_id></shop_id>
    <address>双菱路102号新座丽豪酒店3楼(近庆春路)</address>
    <latitude>30.2583</latitude>
    <longitude>120.1957</longitude>
    <campus>华家池</campus>
    <city>杭州</city>
  </location>
  <location>
    <deal_id>bg7znz1z</deal_id>
    <shop_id></shop_id>
    <address>西湖区丰潭路275-277号</address>
    <latitude>30.2954</latitude>
    <longitude>120.1064</longitude>
    <campus>紫金港</campus>
    <city>杭州</city>
  </location>
  <location>
    <deal_id>vglho5aq</deal_id>
    <shop_id></shop_id>
    <address>平海路124号利星名品广场B1楼(近东坡路)</address>
    <latitude>30.2545</latitude>
    <longitude>120.1625</longitude>
    <campus>华家池</campus>
    <city>杭州</city>
  </location>
  <location>
    <deal_id>vufurtel</deal_id>
    <shop_id></shop_id>
    <address>高银街53-57号(近河坊街)</address>
    <latitude>30.2403</latitude>
    <longitude>120.1706</longitude>
    <campus>华家池</campus>
    <city>杭州</city>
  </location>
  <location>
    <deal_id>vufurtel</deal_id>
    <shop_id></shop_id>
    <address>河坊街101-103号(中山中路口)</address>
    <latitude>30.2404</latitude>
    <longitude>120.1701</longitude>
    <campus>华家池</campus>
    <city>杭州</city>
  </location>
  <location>
    <deal_id>jwgnhytv</deal_id>
    <shop_id></shop_id>
    <address>万塘路16-2号</address>
    <latitude>30.2733</latitude>
    <longitude>120.125</longitude>
    <campus>玉泉</campus>
    <city>杭州</city>
  </location>
  <location>
    <deal_id>vp8n3wzf</deal_id>
    <shop_id></shop_id>
    <address>西湖区黄姑山路3号</address>
    <latitude>30.2725</latitude>
    <longitude>120.1338</longitude>
    <campus>西溪</campus>
    <city>杭州</city>
  </location>
  <location>
    <deal_id>t1w6qw85</deal_id>
    <shop_id></shop_id>
    <address>莲花街333号</address>
    <latitude>30.2706</latitude>
    <longitude>120.1035</longitude>
    <campus>玉泉</campus>
    <city>杭州</city>
  </location>
  <location>
    <deal_id>kfsfx67i</deal_id>
    <shop_id></shop_id>
    <address>上城区高银街37-39号</address>
    <latitude>30.24</latitude>
    <longitude>120.1709</longitude>
    <campus>华家池</campus>
    <city>杭州</city>
  </location>
  <location>
    <deal_id>nwsrgdmn</deal_id>
    <shop_id></shop_id>
    <address>高银街89号</address>
    <latitude>30.24</latitude>
    <longitude>120.1697</longitude>
    <campus>华家池</campus>
    <city>杭州</city>
  </location>
  <location>
    <deal_id>jfx8ptj0</deal_id>
    <shop_id></shop_id>
    <address>上城区解放路249号解百新世纪6楼</address>
    <latitude>30.2488</latitude>
    <longitude>120.1655</longitude>
    <campus>华家池</campus>
    <city>杭州</city>
  </location>
  <location>
    <deal_id>utz2uny0</deal_id>
    <shop_id></shop_id>
    <address>金城路333号加州阳光4楼</address>
    <latitude>30.2676</latitude>
    <longitude>120.149</longitude>
    <campus>西溪</campus>
    <city>杭州</city>
  </location>
  <location>
    <deal_id>utz2uny0</deal_id>
    <shop_id></shop_id>
    <address>西湖区文一路84号</address>
    <latitude>30.2881</latitude>
    <longitude>120.1399</longitude>
    <campus>西溪</campus>
    <city>杭州</city>
  </location>
  <location>
    <deal_id>utz2uny0</deal_id>
    <shop_id></shop_id>
    <address>瓜沥镇东灵路225号</address>
    <latitude>30.1767</latitude>
    <longitude>120.4586</longitude>
    <campus>华家池</campus>
    <city>杭州</city>
  </location>
  <location>
    <deal_id>qshq0dfq</deal_id>
    <shop_id></shop_id>
    <address>秋涛路683号</address>
    <latitude>30.2464</latitude>
    <longitude>120.2005</longitude>
    <campus>华家池</campus>
    <city>杭州</city>
  </location>
  <location>
    <deal_id>qshq0dfq</deal_id>
    <shop_id></shop_id>
    <address>湖墅南路280号(潮王路口)</address>
    <latitude>30.2853</latitude>
    <longitude>120.1519</longitude>
    <campus>西溪</campus>
    <city>杭州</city>
  </location>
  <location>
    <deal_id>isymkswk</deal_id>
    <shop_id></shop_id>
    <address>东坡路12号(近平海路)</address>
    <latitude>30.2531</latitude>
    <longitude>120.1635</longitude>
    <campus>华家池</campus>
    <city>杭州</city>
  </location>
  <location>
    <deal_id>ivdifzjw</deal_id>
    <shop_id></shop_id>
    <address>武林广场21号杭州大厦A座6楼</address>
    <latitude>30.274</latitude>
    <longitude>120.155</longitude>
    <campus>西溪</campus>
    <city>杭州</city>
  </location>
  <location>
    <deal_id>cpuhpatc</deal_id>
    <shop_id></shop_id>
    <address>秋涛路683号</address>
    <latitude>30.2464</latitude>
    <longitude>120.2005</longitude>
    <campus>华家池</campus>
    <city>杭州</city>
  </location>
  <location>
    <deal_id>cpuhpatc</deal_id>
    <shop_id></shop_id>
    <address>湖墅南路280号(潮王路口)</address>
    <latitude>30.2853</latitude>
    <longitude>120.1519</longitude>
    <campus>西溪</campus>
    <city>杭州</city>
  </location>
  <location>
    <deal_id>u8ulgewi</deal_id>
    <shop_id></shop_id>
    <address>文二西路489号颐景园综合楼401室</address>
    <latitude>30.2806</latitude>
    <longitude>120.1001</longitude>
    <campus>玉泉</campus>
    <city>杭州</city>
  </location>
  <location>
    <deal_id>q4gmwjp5</deal_id>
    <shop_id></shop_id>
    <address>湖墅南路348号(近文一路)</address>
    <latitude>30.2872</latitude>
    <longitude>120.1509</longitude>
    <campus>西溪</campus>
    <city>杭州</city>
  </location>
  <location>
    <deal_id>q4gmwjp5</deal_id>
    <shop_id></shop_id>
    <address>春秋南路商贸中心4号</address>
    <latitude>30.0407</latitude>
    <longitude>119.9452</longitude>
    <campus>之江</campus>
    <city>杭州</city>
  </location>
  <location>
    <deal_id>q4gmwjp5</deal_id>
    <shop_id></shop_id>
    <address>朝晖路56-1号</address>
    <latitude>30.2787</latitude>
    <longitude>120.1818</longitude>
    <campus>华家池</campus>
    <city>杭州</city>
  </location>
  <location>
    <deal_id>q4gmwjp5</deal_id>
    <shop_id></shop_id>
    <address>马塍路3-6号</address>
    <latitude>30.2726</latitude>
    <longitude>120.1514</longitude>
    <campus>西溪</campus>
    <city>杭州</city>
  </location>
  <location>
    <deal_id>q4gmwjp5</deal_id>
    <shop_id></shop_id>
    <address>竞舟路220号金城花园25号(近文二西路)</address>
    <latitude>30.2834</latitude>
    <longitude>120.1062</longitude>
    <campus>玉泉</campus>
    <city>杭州</city>
  </location>
  <location>
    <deal_id>q4gmwjp5</deal_id>
    <shop_id></shop_id>
    <address>昙花庵路288号</address>
    <latitude>30.2697</latitude>
    <longitude>120.2028</longitude>
    <campus>华家池</campus>
    <city>杭州</city>
  </location>
  <location>
    <deal_id>q4gmwjp5</deal_id>
    <shop_id></shop_id>
    <address>双菱路168-2号</address>
    <latitude>30.2616</latitude>
    <longitude>120.1961</longitude>
    <campus>华家池</campus>
    <city>杭州</city>
  </location>
  <location>
    <deal_id>q4gmwjp5</deal_id>
    <shop_id></shop_id>
    <address>现代商厦29-1号</address>
    <latitude>30.0478</latitude>
    <longitude>119.9598</longitude>
    <campus>之江</campus>
    <city>杭州</city>
  </location>
  <location>
    <deal_id>q4gmwjp5</deal_id>
    <shop_id></shop_id>
    <address>转塘直街43号</address>
    <latitude>30.1606</latitude>
    <longitude>120.0801</longitude>
    <campus>之江</campus>
    <city>杭州</city>
  </location>
  <location>
    <deal_id>q4gmwjp5</deal_id>
    <shop_id></shop_id>
    <address>复兴南路17号</address>
    <latitude>30.211</latitude>
    <longitude>120.1715</longitude>
    <campus>之江</campus>
    <city>杭州</city>
  </location>
  <location>
    <deal_id>q4gmwjp5</deal_id>
    <shop_id></shop_id>
    <address>江城路605号</address>
    <latitude>30.2347</latitude>
    <longitude>120.1764</longitude>
    <campus>华家池</campus>
    <city>杭州</city>
  </location>
  <location>
    <deal_id>q4gmwjp5</deal_id>
    <shop_id></shop_id>
    <address>桂花西路69号PTWO派の屋 </address>
    <latitude>30.047</latitude>
    <longitude>119.9466</longitude>
    <campus>之江</campus>
    <city>杭州</city>
  </location>
  <location>
    <deal_id>q4gmwjp5</deal_id>
    <shop_id></shop_id>
    <address>龙山路126号PTWO派の屋    </address>
    <latitude>30.0505</latitude>
    <longitude>119.9599</longitude>
    <campus>之江</campus>
    <city>杭州</city>
  </location>
  <location>
    <deal_id>q4gmwjp5</deal_id>
    <shop_id></shop_id>
    <address>莫干山路322号</address>
    <latitude>30.2935</latitude>
    <longitude>120.1416</longitude>
    <campus>西溪</campus>
    <city>杭州</city>
  </location>
  <location>
    <deal_id>q4gmwjp5</deal_id>
    <shop_id></shop_id>
    <address>华丰路274号</address>
    <latitude>30.3462</latitude>
    <longitude>120.2366</longitude>
    <campus>华家池</campus>
    <city>杭州</city>
  </location>
  <location>
    <deal_id>q4gmwjp5</deal_id>
    <shop_id></shop_id>
    <address>凤起路30号</address>
    <latitude>30.2636</latitude>
    <longitude>120.1855</longitude>
    <campus>华家池</campus>
    <city>杭州</city>
  </location>
  <location>
    <deal_id>q4gmwjp5</deal_id>
    <shop_id></shop_id>
    <address>复兴南街179号</address>
    <latitude>30.2083</latitude>
    <longitude>120.1661</longitude>
    <campus>之江</campus>
    <city>杭州</city>
  </location>
  <location>
    <deal_id>q4gmwjp5</deal_id>
    <shop_id></shop_id>
    <address>王家弄33号（保俶路）</address>
    <latitude>30.2681</latitude>
    <longitude>120.1491</longitude>
    <campus>西溪</campus>
    <city>杭州</city>
  </location>
  <location>
    <deal_id>q4gmwjp5</deal_id>
    <shop_id></shop_id>
    <address>新兴路146号</address>
    <latitude>30.0517</latitude>
    <longitude>119.9493</longitude>
    <campus>之江</campus>
    <city>杭州</city>
  </location>
  <location>
    <deal_id>q4gmwjp5</deal_id>
    <shop_id></shop_id>
    <address>三墩镇灯彩路202号</address>
    <latitude>30.3253</latitude>
    <longitude>120.0873</longitude>
    <campus>紫金港</campus>
    <city>杭州</city>
  </location>
  <location>
    <deal_id>q4gmwjp5</deal_id>
    <shop_id></shop_id>
    <address>清波街67号(近南山路)</address>
    <latitude>30.2376</latitude>
    <longitude>120.1608</longitude>
    <campus>华家池</campus>
    <city>杭州</city>
  </location>
  <location>
    <deal_id>q4gmwjp5</deal_id>
    <shop_id></shop_id>
    <address>桂花西路138号-13</address>
    <latitude>30.0472</latitude>
    <longitude>119.9435</longitude>
    <campus>之江</campus>
    <city>杭州</city>
  </location>
  <location>
    <deal_id>q4gmwjp5</deal_id>
    <shop_id></shop_id>
    <address>古墩路367号</address>
    <latitude>30.2777</latitude>
    <longitude>120.1007</longitude>
    <campus>玉泉</campus>
    <city>杭州</city>
  </location>
  <location>
    <deal_id>q4gmwjp5</deal_id>
    <shop_id></shop_id>
    <address>建国北路420号(河滨乐购对面)</address>
    <latitude>30.2671</latitude>
    <longitude>120.1813</longitude>
    <campus>华家池</campus>
    <city>杭州</city>
  </location>
  <location>
    <deal_id>q4gmwjp5</deal_id>
    <shop_id></shop_id>
    <address>文三西路239号</address>
    <latitude>30.2752</latitude>
    <longitude>120.1033</longitude>
    <campus>玉泉</campus>
    <city>杭州</city>
  </location>
  <location>
    <deal_id>q4gmwjp5</deal_id>
    <shop_id></shop_id>
    <address>花坞路35-1号</address>
    <latitude>30.0498</latitude>
    <longitude>119.9647</longitude>
    <campus>之江</campus>
    <city>杭州</city>
  </location>
  <location>
    <deal_id>q4gmwjp5</deal_id>
    <shop_id></shop_id>
    <address>迎宾路12-1号</address>
    <latitude>30.0496</latitude>
    <longitude>119.9551</longitude>
    <campus>之江</campus>
    <city>杭州</city>
  </location>
  <location>
    <deal_id>q4gmwjp5</deal_id>
    <shop_id></shop_id>
    <address>龙山路211-5号</address>
    <latitude>30.0503</latitude>
    <longitude>119.9573</longitude>
    <campus>之江</campus>
    <city>杭州</city>
  </location>
  <location>
    <deal_id>q4gmwjp5</deal_id>
    <shop_id></shop_id>
    <address>永庆路12号(拱北蚕花苑对面)</address>
    <latitude>30.328</latitude>
    <longitude>120.1471</longitude>
    <campus>西溪</campus>
    <city>杭州</city>
  </location>
  <location>
    <deal_id>q4gmwjp5</deal_id>
    <shop_id></shop_id>
    <address>迎宾路53号</address>
    <latitude>30.0562</latitude>
    <longitude>119.9527</longitude>
    <campus>之江</campus>
    <city>杭州</city>
  </location>
  <location>
    <deal_id>q4gmwjp5</deal_id>
    <shop_id></shop_id>
    <address>春秋北路286号西3-4</address>
    <latitude>30.06</latitude>
    <longitude>119.9426</longitude>
    <campus>之江</campus>
    <city>杭州</city>
  </location>
  <location>
    <deal_id>q4gmwjp5</deal_id>
    <shop_id></shop_id>
    <address>益乐路嘉绿名苑13幢底商3号</address>
    <latitude>30.2803</latitude>
    <longitude>120.1143</longitude>
    <campus>玉泉</campus>
    <city>杭州</city>
  </location>
  <location>
    <deal_id>q4gmwjp5</deal_id>
    <shop_id></shop_id>
    <address>江汉路1663号</address>
    <latitude>30.2038</latitude>
    <longitude>120.2039</longitude>
    <campus>华家池</campus>
    <city>杭州</city>
  </location>
  <location>
    <deal_id>q4gmwjp5</deal_id>
    <shop_id></shop_id>
    <address>香积寺路54号</address>
    <latitude>30.3067</latitude>
    <longitude>120.1731</longitude>
    <campus>华家池</campus>
    <city>杭州</city>
  </location>
  <location>
    <deal_id>q4gmwjp5</deal_id>
    <shop_id></shop_id>
    <address>东新路1048号</address>
    <latitude>30.3378</latitude>
    <longitude>120.1861</longitude>
    <campus>华家池</campus>
    <city>杭州</city>
  </location>
  <location>
    <deal_id>q4gmwjp5</deal_id>
    <shop_id></shop_id>
    <address>新兴路23号</address>
    <latitude>30.0517</latitude>
    <longitude>119.9493</longitude>
    <campus>之江</campus>
    <city>杭州</city>
  </location>
  <location>
    <deal_id>q4gmwjp5</deal_id>
    <shop_id></shop_id>
    <address>蕙兰雅路572号</address>
    <latitude>30.253</latitude>
    <longitude>120.2133</longitude>
    <campus>华家池</campus>
    <city>杭州</city>
  </location>
  <location>
    <deal_id>q4gmwjp5</deal_id>
    <shop_id></shop_id>
    <address>余杭区金家渡路274号（亲亲家园）</address>
    <latitude>30.3357</latitude>
    <longitude>120.086</longitude>
    <campus>紫金港</campus>
    <city>杭州</city>
  </location>
  <location>
    <deal_id>q4gmwjp5</deal_id>
    <shop_id></shop_id>
    <address>半山路21号</address>
    <latitude>30.3492</latitude>
    <longitude>120.1894</longitude>
    <campus>华家池</campus>
    <city>杭州</city>
  </location>
  <location>
    <deal_id>q4gmwjp5</deal_id>
    <shop_id></shop_id>
    <address>下城区体育场路47号(近环城东路)</address>
    <latitude>30.2694</latitude>
    <longitude>120.185</longitude>
    <campus>华家池</campus>
    <city>杭州</city>
  </location>
  <location>
    <deal_id>q4gmwjp5</deal_id>
    <shop_id></shop_id>
    <address>河东路新市街190号</address>
    <latitude>30.2851</latitude>
    <longitude>120.1623</longitude>
    <campus>华家池</campus>
    <city>杭州</city>
  </location>
  <location>
    <deal_id>q4gmwjp5</deal_id>
    <shop_id></shop_id>
    <address>文二路420号</address>
    <latitude>30.2821</latitude>
    <longitude>120.122</longitude>
    <campus>西溪</campus>
    <city>杭州</city>
  </location>
  <location>
    <deal_id>q4gmwjp5</deal_id>
    <shop_id></shop_id>
    <address>桂花西路206号</address>
    <latitude>30.0471</latitude>
    <longitude>119.9401</longitude>
    <campus>之江</campus>
    <city>杭州</city>
  </location>
  <location>
    <deal_id>q4gmwjp5</deal_id>
    <shop_id></shop_id>
    <address>莫干山路851号</address>
    <latitude>30.3039</latitude>
    <longitude>120.1266</longitude>
    <campus>西溪</campus>
    <city>杭州</city>
  </location>
  <location>
    <deal_id>q4gmwjp5</deal_id>
    <shop_id></shop_id>
    <address>春秋南路129号</address>
    <latitude>30.0409</latitude>
    <longitude>119.9452</longitude>
    <campus>之江</campus>
    <city>杭州</city>
  </location>
  <location>
    <deal_id>itnqpzs6</deal_id>
    <shop_id></shop_id>
    <address>古墩路铭雅苑西区商铺15-1号 </address>
    <latitude>30.3379</latitude>
    <longitude>120.0844</longitude>
    <campus>紫金港</campus>
    <city>杭州</city>
  </location>
  <location>
    <deal_id>ovsz9ujk</deal_id>
    <shop_id></shop_id>
    <address>中山北路二圣庙前54号</address>
    <latitude>30.2618</latitude>
    <longitude>120.1705</longitude>
    <campus>华家池</campus>
    <city>杭州</city>
  </location>
  <location>
    <deal_id>i6fy3ree</deal_id>
    <shop_id></shop_id>
    <address>杭州市拱墅区湖墅南路407号4幢</address>
    <latitude>30.274</latitude>
    <longitude>120.155</longitude>
    <campus>西溪</campus>
    <city>杭州</city>
  </location>
  <location>
    <deal_id>5yn6ffgz</deal_id>
    <shop_id></shop_id>
    <address>庆春路169号娃哈哈超市内1楼(近新华影都)</address>
    <latitude>30.2579</latitude>
    <longitude>120.1691</longitude>
    <campus>华家池</campus>
    <city>杭州</city>
  </location>
  <location>
    <deal_id>pfn12oy5</deal_id>
    <shop_id></shop_id>
    <address>西湖大道2号红楼大酒店3楼(城站广场对面)</address>
    <latitude>30.2448</latitude>
    <longitude>120.1825</longitude>
    <campus>华家池</campus>
    <city>杭州</city>
  </location>
  <location>
    <deal_id>l1kxgo9i</deal_id>
    <shop_id></shop_id>
    <address>胜利河美食街霞湾巷C28</address>
    <latitude>30.2958</latitude>
    <longitude>120.1526</longitude>
    <campus>西溪</campus>
    <city>杭州</city>
  </location>
  <location>
    <deal_id>4bqquqnn</deal_id>
    <shop_id></shop_id>
    <address>江干区新塘路119号世纪联华超市内（近庆春银泰）</address>
    <latitude>30.2569</latitude>
    <longitude>120.205</longitude>
    <campus>华家池</campus>
    <city>杭州</city>
  </location>
  <location>
    <deal_id>pkbnz5ci</deal_id>
    <shop_id></shop_id>
    <address>中山中路24-26号</address>
    <latitude>30.2392</latitude>
    <longitude>120.171</longitude>
    <campus>华家池</campus>
    <city>杭州</city>
  </location>
  <location>
    <deal_id>ysh4lbp3</deal_id>
    <shop_id></shop_id>
    <address>西湖区黄姑山路3号</address>
    <latitude>30.2725</latitude>
    <longitude>120.1338</longitude>
    <campus>西溪</campus>
    <city>杭州</city>
  </location>
  <location>
    <deal_id>8d1cfd2c6e32b56e53f9f39902e540c3</deal_id>
    <shop_id></shop_id>
    <address>益乐路39号</address>
    <latitude>30.2794</latitude>
    <longitude>120.1142</longitude>
    <campus>玉泉</campus>
    <city>杭州</city>
  </location>
  <location>
    <deal_id>v0yrmcpw</deal_id>
    <shop_id></shop_id>
    <address>下城区绍兴路538号一层东面（三立时代广场）</address>
    <latitude>30.3083</latitude>
    <longitude>120.1589</longitude>
    <campus>西溪</campus>
    <city>杭州</city>
  </location>
  <location>
    <deal_id>2ojjrl5l</deal_id>
    <shop_id></shop_id>
    <address>杭州市下沙25号大街1232号（工商大学体育馆下）</address>
    <latitude>30.3063</latitude>
    <longitude>120.3826</longitude>
    <campus>华家池</campus>
    <city>杭州</city>
  </location>
  <location>
    <deal_id>2ojjrl5l</deal_id>
    <shop_id></shop_id>
    <address>杭州市下沙2号大街华元电影大世界1楼北 门（地铁文泽站出口正对）</address>
    <latitude>30.3094</latitude>
    <longitude>120.3529</longitude>
    <campus>华家池</campus>
    <city>杭州</city>
  </location>
  <location>
    <deal_id>2ojjrl5l</deal_id>
    <shop_id></shop_id>
    <address>杭州市下沙文津路25号（320终点站旁）</address>
    <latitude>30.3121</latitude>
    <longitude>120.3653</longitude>
    <campus>华家池</campus>
    <city>杭州</city>
  </location>
  <location>
    <deal_id>froecwfp</deal_id>
    <shop_id></shop_id>
    <address>信义商街35号</address>
    <latitude>30.2938</latitude>
    <longitude>120.1429</longitude>
    <campus>西溪</campus>
    <city>杭州</city>
  </location>
  <location>
    <deal_id>mlav1tqo</deal_id>
    <shop_id></shop_id>
    <address>莫干山路76号</address>
    <latitude>30.2769</latitude>
    <longitude>120.1524</longitude>
    <campus>西溪</campus>
    <city>杭州</city>
  </location>
  <location>
    <deal_id>eqxeeduf</deal_id>
    <shop_id></shop_id>
    <address>中山南路98号</address>
    <latitude>30.2371</latitude>
    <longitude>120.1717</longitude>
    <campus>华家池</campus>
    <city>杭州</city>
  </location>
  <location>
    <deal_id>0cjpa9or</deal_id>
    <shop_id></shop_id>
    <address>武林广场21号杭州大厦A座5楼(近体育场路)</address>
    <latitude>30.273</latitude>
    <longitude>120.1607</longitude>
    <campus>西溪</campus>
    <city>杭州</city>
  </location>
  <location>
    <deal_id>rwehmbyw</deal_id>
    <shop_id></shop_id>
    <address>中山北路天水巷天水小学正大门口</address>
    <latitude>30.2707</latitude>
    <longitude>120.1672</longitude>
    <campus>华家池</campus>
    <city>杭州</city>
  </location>
  <location>
    <deal_id>co7mljax</deal_id>
    <shop_id></shop_id>
    <address>朝晖路92号</address>
    <latitude>30.2782</latitude>
    <longitude>120.1799</longitude>
    <campus>华家池</campus>
    <city>杭州</city>
  </location>
  <location>
    <deal_id>jw3beeof</deal_id>
    <shop_id></shop_id>
    <address>平海路15号</address>
    <latitude>30.2538</latitude>
    <longitude>120.1698</longitude>
    <campus>华家池</campus>
    <city>杭州</city>
  </location>
  <location>
    <deal_id>zluexkgr</deal_id>
    <shop_id></shop_id>
    <address>文一路128-1号</address>
    <latitude>30.288</latitude>
    <longitude>120.1363</longitude>
    <campus>西溪</campus>
    <city>杭州</city>
  </location>
  <location>
    <deal_id>sidbsict</deal_id>
    <shop_id></shop_id>
    <address>庆春路169号娃哈哈超市内1楼(近新华影都)</address>
    <latitude>30.2579</latitude>
    <longitude>120.1691</longitude>
    <campus>华家池</campus>
    <city>杭州</city>
  </location>
  <location>
    <deal_id>lmaq57oj</deal_id>
    <shop_id></shop_id>
    <address>杭州市拱墅区上塘路运河广场5号</address>
    <latitude>30.3158</latitude>
    <longitude>120.147</longitude>
    <campus>西溪</campus>
    <city>杭州</city>
  </location>
  <location>
    <deal_id>dwj2hfeb</deal_id>
    <shop_id></shop_id>
    <address>拱墅区杭行路188号360空间大厦2楼</address>
    <latitude>30.323</latitude>
    <longitude>120.1207</longitude>
    <campus>紫金港</campus>
    <city>杭州</city>
  </location>
  <location>
    <deal_id>enu0dyy1</deal_id>
    <shop_id></shop_id>
    <address>中山南路486号中华美食园(近鼓楼)</address>
    <latitude>30.2359</latitude>
    <longitude>120.1715</longitude>
    <campus>华家池</campus>
    <city>杭州</city>
  </location>
  <location>
    <deal_id>mpuokfru</deal_id>
    <shop_id></shop_id>
    <address>杭州市下城区庆春路203号（长生路18号） </address>
    <latitude>30.2582</latitude>
    <longitude>120.1647</longitude>
    <campus>华家池</campus>
    <city>杭州</city>
  </location>
  <location>
    <deal_id>o2mjqav7</deal_id>
    <shop_id></shop_id>
    <address>高银街89号</address>
    <latitude>30.24</latitude>
    <longitude>120.1697</longitude>
    <campus>华家池</campus>
    <city>杭州</city>
  </location>
  <location>
    <deal_id>ixqzqtl6</deal_id>
    <shop_id></shop_id>
    <address>文一路128-1号</address>
    <latitude>30.288</latitude>
    <longitude>120.1363</longitude>
    <campus>西溪</campus>
    <city>杭州</city>
  </location>
  <location>
    <deal_id>sv9g6zet</deal_id>
    <shop_id></shop_id>
    <address>霞湾巷228号（外婆家运动会旁）</address>
    <latitude>30.2958</latitude>
    <longitude>120.1531</longitude>
    <campus>西溪</campus>
    <city>杭州</city>
  </location>
  <location>
    <deal_id>ka22fgr7</deal_id>
    <shop_id></shop_id>
    <address>天城路176号（文辉大桥东，神州白云大厦2楼）</address>
    <latitude>30.2834</latitude>
    <longitude>120.1901</longitude>
    <campus>华家池</campus>
    <city>杭州</city>
  </location>
  <location>
    <deal_id>sqltr3xw</deal_id>
    <shop_id></shop_id>
    <address>河坊街38号</address>
    <latitude>30.2331</latitude>
    <longitude>120.1706</longitude>
    <campus>华家池</campus>
    <city>杭州</city>
  </location>
  <location>
    <deal_id>sqltr3xw</deal_id>
    <shop_id></shop_id>
    <address>保俶路222号</address>
    <latitude>30.2704</latitude>
    <longitude>120.1468</longitude>
    <campus>西溪</campus>
    <city>杭州</city>
  </location>
  <location>
    <deal_id>cs7v3pwp</deal_id>
    <shop_id></shop_id>
    <address>江干区望江东路鲲鹏路363号（消防指挥中心裙楼）</address>
    <latitude>30.2323</latitude>
    <longitude>120.1912</longitude>
    <campus>华家池</campus>
    <city>杭州</city>
  </location>
  <location>
    <deal_id>ez4cwcfi</deal_id>
    <shop_id></shop_id>
    <address>高银美食街115-117号(近吴山广场)</address>
    <latitude>30.2403</latitude>
    <longitude>120.1677</longitude>
    <campus>华家池</campus>
    <city>杭州</city>
  </location>
  <location>
    <deal_id>ez4cwcfi</deal_id>
    <shop_id></shop_id>
    <address>高银街105号</address>
    <latitude>30.2399</latitude>
    <longitude>120.1692</longitude>
    <campus>华家池</campus>
    <city>杭州</city>
  </location>
  <location>
    <deal_id>gloplbsa</deal_id>
    <shop_id></shop_id>
    <address>金城路333号加州阳光4楼</address>
    <latitude>30.2676</latitude>
    <longitude>120.149</longitude>
    <campus>西溪</campus>
    <city>杭州</city>
  </location>
  <location>
    <deal_id>gloplbsa</deal_id>
    <shop_id></shop_id>
    <address>西湖区文一路84号</address>
    <latitude>30.2881</latitude>
    <longitude>120.1399</longitude>
    <campus>西溪</campus>
    <city>杭州</city>
  </location>
  <location>
    <deal_id>gloplbsa</deal_id>
    <shop_id></shop_id>
    <address>瓜沥镇东灵路225号</address>
    <latitude>30.1767</latitude>
    <longitude>120.4586</longitude>
    <campus>华家池</campus>
    <city>杭州</city>
  </location>
  <location>
    <deal_id>tuhnmijk</deal_id>
    <shop_id></shop_id>
    <address>文二西路489号颐景园综合楼401室</address>
    <latitude>30.2806</latitude>
    <longitude>120.1001</longitude>
    <campus>玉泉</campus>
    <city>杭州</city>
  </location>
  <location>
    <deal_id>z3ukn3gb</deal_id>
    <shop_id></shop_id>
    <address>狮虎桥路40-6号(近武林银泰百货)</address>
    <latitude>30.2676</latitude>
    <longitude>120.1638</longitude>
    <campus>华家池</campus>
    <city>杭州</city>
  </location>
  <location>
    <deal_id>z3ukn3gb</deal_id>
    <shop_id></shop_id>
    <address>龙游路37-1号</address>
    <latitude>30.2529</latitude>
    <longitude>120.2132</longitude>
    <campus>华家池</campus>
    <city>杭州</city>
  </location>
  <location>
    <deal_id>z3ukn3gb</deal_id>
    <shop_id></shop_id>
    <address>西湖文化广场18号银泰百货2楼水吧</address>
    <latitude>30.2771</latitude>
    <longitude>120.1652</longitude>
    <campus>华家池</campus>
    <city>杭州</city>
  </location>
  <location>
    <deal_id>wgo4volh</deal_id>
    <shop_id></shop_id>
    <address>申花路759号剑桥公社E座</address>
    <latitude>30.3057</latitude>
    <longitude>120.0968</longitude>
    <campus>紫金港</campus>
    <city>杭州</city>
  </location>
  <location>
    <deal_id>kuntfrlz</deal_id>
    <shop_id></shop_id>
    <address>梅灵南路15号  浙江省军区茶厂内（原：云栖路7号）云栖竹径停车场边</address>
    <latitude>30.1883</latitude>
    <longitude>120.0878</longitude>
    <campus>之江</campus>
    <city>杭州</city>
  </location>
  <location>
    <deal_id>loiqdpaq</deal_id>
    <shop_id></shop_id>
    <address>小河直街小河东路下32号 </address>
    <latitude>30.3098</latitude>
    <longitude>120.136</longitude>
    <campus>西溪</campus>
    <city>杭州</city>
  </location>
  <location>
    <deal_id>sq44bvn5</deal_id>
    <shop_id></shop_id>
    <address>延安路31-4号(银泰西湖店斜对面)</address>
    <latitude>30.2419</latitude>
    <longitude>120.1647</longitude>
    <campus>华家池</campus>
    <city>杭州</city>
  </location>
  <location>
    <deal_id>sq44bvn5</deal_id>
    <shop_id></shop_id>
    <address>武林龙游路39号（奥斯卡影院斜对面）</address>
    <latitude>30.261</latitude>
    <longitude>120.16</longitude>
    <campus>西溪</campus>
    <city>杭州</city>
  </location>
  <location>
    <deal_id>f63jtxdt</deal_id>
    <shop_id></shop_id>
    <address>南山路147号西湖天地9A-C(近西湖大道) </address>
    <latitude>30.2477</latitude>
    <longitude>120.1603</longitude>
    <campus>华家池</campus>
    <city>杭州</city>
  </location>
  <location>
    <deal_id>rsix2xn5</deal_id>
    <shop_id></shop_id>
    <address>江干区钱潮路2-6号天元大厦34楼</address>
    <latitude>30.2544</latitude>
    <longitude>120.2243</longitude>
    <campus>华家池</campus>
    <city>杭州</city>
  </location>
  <location>
    <deal_id>hc5it2ph</deal_id>
    <shop_id></shop_id>
    <address>湖滨路8号（西旺茶餐厅旁）</address>
    <latitude>30.2507</latitude>
    <longitude>120.1636</longitude>
    <campus>华家池</campus>
    <city>杭州</city>
  </location>
  <location>
    <deal_id>lz2gjgvs</deal_id>
    <shop_id></shop_id>
    <address>中山南路98号</address>
    <latitude>30.2371</latitude>
    <longitude>120.1717</longitude>
    <campus>华家池</campus>
    <city>杭州</city>
  </location>
  <location>
    <deal_id>sti6lclb</deal_id>
    <shop_id></shop_id>
    <address>体育场路221号浙江国际大酒店内(近中河路)</address>
    <latitude>30.2697</latitude>
    <longitude>120.1703</longitude>
    <campus>华家池</campus>
    <city>杭州</city>
  </location>
  <location>
    <deal_id>z3tdqyex</deal_id>
    <shop_id></shop_id>
    <address>清泰街488号</address>
    <latitude>30.2468</latitude>
    <longitude>120.1741</longitude>
    <campus>华家池</campus>
    <city>杭州</city>
  </location>
  <location>
    <deal_id>oc3cpdxt</deal_id>
    <shop_id></shop_id>
    <address>上城区中山中路479号(近平海路) </address>
    <latitude>30.2529</latitude>
    <longitude>120.1703</longitude>
    <campus>华家池</campus>
    <city>杭州</city>
  </location>
  <location>
    <deal_id>1xi7cdfc</deal_id>
    <shop_id></shop_id>
    <address>解放路251号解百商厦B座2楼(近湖滨路)</address>
    <latitude>30.2676</latitude>
    <longitude>120.149</longitude>
    <campus>西溪</campus>
    <city>杭州</city>
  </location>
  <location>
    <deal_id>1xi7cdfc</deal_id>
    <shop_id></shop_id>
    <address>下城区东新路155号</address>
    <latitude>30.2901</latitude>
    <longitude>120.1788</longitude>
    <campus>华家池</campus>
    <city>杭州</city>
  </location>
  <location>
    <deal_id>olqqfr0a</deal_id>
    <shop_id></shop_id>
    <address>转塘新村16号 </address>
    <latitude>30.1614</latitude>
    <longitude>120.0808</longitude>
    <campus>之江</campus>
    <city>杭州</city>
  </location>
  <location>
    <deal_id>olqqfr0a</deal_id>
    <shop_id></shop_id>
    <address>滨江区杨家墩商业街储家潭18号(垃圾街)</address>
    <latitude>30.1645</latitude>
    <longitude>120.155</longitude>
    <campus>之江</campus>
    <city>杭州</city>
  </location>
  <location>
    <deal_id>yoh3mfts</deal_id>
    <shop_id></shop_id>
    <address>莫干山路246号</address>
    <latitude>30.253</latitude>
    <longitude>120.2133</longitude>
    <campus>华家池</campus>
    <city>杭州</city>
  </location>
  <location>
    <deal_id>rnwqiwr9</deal_id>
    <shop_id></shop_id>
    <address>庆春路169号娃哈哈超市内1楼(近新华影都)</address>
    <latitude>30.2579</latitude>
    <longitude>120.1691</longitude>
    <campus>华家池</campus>
    <city>杭州</city>
  </location>
  <location>
    <deal_id>aSUUDI6V</deal_id>
    <shop_id></shop_id>
    <address>西湖区文二西路820号(近西溪湿地北门</address>
    <latitude>30.2799</latitude>
    <longitude>120.0863</longitude>
    <campus>紫金港</campus>
    <city>杭州</city>
  </location>
  <location>
    <deal_id>xgb6ju53</deal_id>
    <shop_id></shop_id>
    <address>平海路25号</address>
    <latitude>30.2536</latitude>
    <longitude>120.1692</longitude>
    <campus>华家池</campus>
    <city>杭州</city>
  </location>
  <location>
    <deal_id>qli9lpbu</deal_id>
    <shop_id></shop_id>
    <address>杭州市莫干山路766号(近汽车北站售票大楼) &#13;
</address>
    <latitude>30.3163</latitude>
    <longitude>120.1132</longitude>
    <campus>紫金港</campus>
    <city>杭州</city>
  </location>
  <location>
    <deal_id>eofxidkz</deal_id>
    <shop_id></shop_id>
    <address>虎跑路四眼井238号</address>
    <latitude>30.2161</latitude>
    <longitude>120.1384</longitude>
    <campus>之江</campus>
    <city>杭州</city>
  </location>
  <location>
    <deal_id>mjxzkbnb</deal_id>
    <shop_id></shop_id>
    <address>西湖区保俶路114号 </address>
    <latitude>30.265</latitude>
    <longitude>120.1492</longitude>
    <campus>西溪</campus>
    <city>杭州</city>
  </location>
  <location>
    <deal_id>rycdfkxl</deal_id>
    <shop_id></shop_id>
    <address>桥西直街13-17号（伞博物馆后面，钱运茶馆运河对面）</address>
    <latitude>30.3169</latitude>
    <longitude>120.1392</longitude>
    <campus>西溪</campus>
    <city>杭州</city>
  </location>
  <location>
    <deal_id>sicl5ofi</deal_id>
    <shop_id></shop_id>
    <address>机场路163号</address>
    <latitude>30.2858</latitude>
    <longitude>120.1944</longitude>
    <campus>华家池</campus>
    <city>杭州</city>
  </location>
  <location>
    <deal_id>gkfix4v0</deal_id>
    <shop_id></shop_id>
    <address>玉兔路9号大院(近钱江市场)</address>
    <latitude>30.3053</latitude>
    <longitude>120.1465</longitude>
    <campus>西溪</campus>
    <city>杭州</city>
  </location>
  <location>
    <deal_id>ixixqjkk</deal_id>
    <shop_id></shop_id>
    <address>江城路865-867号(近城站火车站)</address>
    <latitude>30.2407</latitude>
    <longitude>120.1795</longitude>
    <campus>华家池</campus>
    <city>杭州</city>
  </location>
  <location>
    <deal_id>ixixqjkk</deal_id>
    <shop_id></shop_id>
    <address>中山南路473号(鼓楼南面)</address>
    <latitude>30.2355</latitude>
    <longitude>120.1707</longitude>
    <campus>华家池</campus>
    <city>杭州</city>
  </location>
  <location>
    <deal_id>fkjvnrfm</deal_id>
    <shop_id></shop_id>
    <address>古墩路358号(古墩路，文二西路交叉口)</address>
    <latitude>30.2813</latitude>
    <longitude>120.1003</longitude>
    <campus>玉泉</campus>
    <city>杭州</city>
  </location>
  <location>
    <deal_id>dr5c9fk7</deal_id>
    <shop_id></shop_id>
    <address>上绍路15号</address>
    <latitude>30.3097</latitude>
    <longitude>120.1494</longitude>
    <campus>西溪</campus>
    <city>杭州</city>
  </location>
  <location>
    <deal_id>ilbo9fsy</deal_id>
    <shop_id></shop_id>
    <address>文一西路188号</address>
    <latitude>30.2862</latitude>
    <longitude>120.1016</longitude>
    <campus>紫金港</campus>
    <city>杭州</city>
  </location>
  <location>
    <deal_id>wgf9z780</deal_id>
    <shop_id></shop_id>
    <address>中山中路10号</address>
    <latitude>30.2524</latitude>
    <longitude>120.1701</longitude>
    <campus>华家池</campus>
    <city>杭州</city>
  </location>
  <location>
    <deal_id>wgf9z780</deal_id>
    <shop_id></shop_id>
    <address>延安路251号新世纪6楼</address>
    <latitude>30.2544</latitude>
    <longitude>120.1641</longitude>
    <campus>华家池</campus>
    <city>杭州</city>
  </location>
  <location>
    <deal_id>nrrd9i6b</deal_id>
    <shop_id></shop_id>
    <address>上绍路15号</address>
    <latitude>30.3097</latitude>
    <longitude>120.1494</longitude>
    <campus>西溪</campus>
    <city>杭州</city>
  </location>
  <location>
    <deal_id>ulvjdgzx</deal_id>
    <shop_id></shop_id>
    <address>西湖区保俶路114号 </address>
    <latitude>30.265</latitude>
    <longitude>120.1492</longitude>
    <campus>西溪</campus>
    <city>杭州</city>
  </location>
  <location>
    <deal_id>zriwjbru</deal_id>
    <shop_id></shop_id>
    <address>新塘路88号天星龙B座2楼(凤起东路口)</address>
    <latitude>30.2587</latitude>
    <longitude>120.2082</longitude>
    <campus>华家池</campus>
    <city>杭州</city>
  </location>
  <location>
    <deal_id>xxzme8ku</deal_id>
    <shop_id></shop_id>
    <address>虎跑路四眼井228号(近动物园)</address>
    <latitude>30.2123</latitude>
    <longitude>120.1357</longitude>
    <campus>之江</campus>
    <city>杭州</city>
  </location>
  <location>
    <deal_id>hquh3jjw</deal_id>
    <shop_id></shop_id>
    <address>中山中路271号</address>
    <latitude>30.2472</latitude>
    <longitude>120.1708</longitude>
    <campus>华家池</campus>
    <city>杭州</city>
  </location>
  <location>
    <deal_id>cat5mbht</deal_id>
    <shop_id></shop_id>
    <address>西湖区和家园杨梅山路350号</address>
    <latitude>30.2325</latitude>
    <longitude>120.0605</longitude>
    <campus>玉泉</campus>
    <city>杭州</city>
  </location>
  <location>
    <deal_id>svsscguz</deal_id>
    <shop_id></shop_id>
    <address>体育场路221号浙江国际大酒店内(近中河路)</address>
    <latitude>30.2697</latitude>
    <longitude>120.1703</longitude>
    <campus>华家池</campus>
    <city>杭州</city>
  </location>
  <location>
    <deal_id>vg3hfd6y</deal_id>
    <shop_id></shop_id>
    <address>天目山路106号1-2层</address>
    <latitude>30.272</latitude>
    <longitude>120.1497</longitude>
    <campus>西溪</campus>
    <city>杭州</city>
  </location>
  <location>
    <deal_id>vg3hfd6y</deal_id>
    <shop_id></shop_id>
    <address>下沙经济开发区六号大街600号</address>
    <latitude>30.253</latitude>
    <longitude>120.2133</longitude>
    <campus>华家池</campus>
    <city>杭州</city>
  </location>
  <location>
    <deal_id>mheskrdm</deal_id>
    <shop_id></shop_id>
    <address>下城区东新路983号</address>
    <latitude>30.3311</latitude>
    <longitude>120.1765</longitude>
    <campus>华家池</campus>
    <city>杭州</city>
  </location>
  <location>
    <deal_id>fn8sfxbq</deal_id>
    <shop_id></shop_id>
    <address>杭州市拱墅区上塘路运河广场5号</address>
    <latitude>30.3158</latitude>
    <longitude>120.147</longitude>
    <campus>西溪</campus>
    <city>杭州</city>
  </location>
  <location>
    <deal_id>ogq4lxjm</deal_id>
    <shop_id></shop_id>
    <address>定安路56-58号(开元酒楼对面)</address>
    <latitude>30.2449</latitude>
    <longitude>120.1664</longitude>
    <campus>华家池</campus>
    <city>杭州</city>
  </location>
  <location>
    <deal_id>ogq4lxjm</deal_id>
    <shop_id></shop_id>
    <address>莫干山路316-318号(加油站对面)</address>
    <latitude>30.293</latitude>
    <longitude>120.1422</longitude>
    <campus>西溪</campus>
    <city>杭州</city>
  </location>
  <location>
    <deal_id>ogq4lxjm</deal_id>
    <shop_id></shop_id>
    <address>天目山路153号</address>
    <latitude>30.2712</latitude>
    <longitude>120.1314</longitude>
    <campus>西溪</campus>
    <city>杭州</city>
  </location>
  <location>
    <deal_id>ogq4lxjm</deal_id>
    <shop_id></shop_id>
    <address>朝晖路205号深蓝广场商铺1楼(中河路口)</address>
    <latitude>30.2759</latitude>
    <longitude>120.1681</longitude>
    <campus>华家池</campus>
    <city>杭州</city>
  </location>
  <location>
    <deal_id>ogq4lxjm</deal_id>
    <shop_id></shop_id>
    <address>凤起东路137号中豪凤起广场</address>
    <latitude>30.2634</latitude>
    <longitude>120.2043</longitude>
    <campus>华家池</campus>
    <city>杭州</city>
  </location>
  <location>
    <deal_id>v48pebzv</deal_id>
    <shop_id></shop_id>
    <address>假山路</address>
    <latitude>30.2948</latitude>
    <longitude>120.1589</longitude>
    <campus>西溪</campus>
    <city>杭州</city>
  </location>
  <location>
    <deal_id>eo2ngnui</deal_id>
    <shop_id></shop_id>
    <address>武林广场21号杭州大厦A座5楼(近体育场路)</address>
    <latitude>30.273</latitude>
    <longitude>120.1607</longitude>
    <campus>西溪</campus>
    <city>杭州</city>
  </location>
  <location>
    <deal_id>za6ssynv</deal_id>
    <shop_id></shop_id>
    <address>高银美食街115-117号(近吴山广场)</address>
    <latitude>30.2403</latitude>
    <longitude>120.1677</longitude>
    <campus>华家池</campus>
    <city>杭州</city>
  </location>
  <location>
    <deal_id>za6ssynv</deal_id>
    <shop_id></shop_id>
    <address>高银街105号</address>
    <latitude>30.2399</latitude>
    <longitude>120.1692</longitude>
    <campus>华家池</campus>
    <city>杭州</city>
  </location>
  <location>
    <deal_id>9avcsy1y</deal_id>
    <shop_id></shop_id>
    <address>保俶路108号(刘家香辣馆旁)</address>
    <latitude>30.2653</latitude>
    <longitude>120.1487</longitude>
    <campus>西溪</campus>
    <city>杭州</city>
  </location>
  <location>
    <deal_id>ttukmwgj</deal_id>
    <shop_id></shop_id>
    <address>苏州市吴中区临湖镇银藏路8号（羊毛衫商业街对面）&#13;
</address>
    <latitude>31.2627</latitude>
    <longitude>120.6319</longitude>
    <campus>华家池</campus>
    <city>杭州</city>
  </location>
  <location>
    <deal_id>h9pgzbco</deal_id>
    <shop_id></shop_id>
    <address>凤起路345号</address>
    <latitude>30.2638</latitude>
    <longitude>120.1695</longitude>
    <campus>华家池</campus>
    <city>杭州</city>
  </location>
  <location>
    <deal_id>jrcdkf02</deal_id>
    <shop_id></shop_id>
    <address>下城区庆春路26号发展大厦(近农业银行)</address>
    <latitude>30.2575</latitude>
    <longitude>120.1861</longitude>
    <campus>华家池</campus>
    <city>杭州</city>
  </location>
  <location>
    <deal_id>vblxptaj</deal_id>
    <shop_id></shop_id>
    <address>下城区绍兴路538号一层东面（三立时代广场）</address>
    <latitude>30.3083</latitude>
    <longitude>120.1589</longitude>
    <campus>西溪</campus>
    <city>杭州</city>
  </location>
  <location>
    <deal_id>wxofzox3</deal_id>
    <shop_id></shop_id>
    <address>梅灵南路15号  浙江省军区茶厂内（原：云栖路7号）云栖竹径停车场边</address>
    <latitude>30.1883</latitude>
    <longitude>120.0878</longitude>
    <campus>之江</campus>
    <city>杭州</city>
  </location>
  <location>
    <deal_id>elk2t2wy</deal_id>
    <shop_id></shop_id>
    <address>江苏省昆山市巴城镇湖滨南路1098号</address>
    <latitude>31.4077</latitude>
    <longitude>120.8504</longitude>
    <campus>华家池</campus>
    <city>杭州</city>
  </location>
  <location>
    <deal_id>ewavwzek</deal_id>
    <shop_id></shop_id>
    <address>中山南路18号（杭州卷烟厂大门口）</address>
    <latitude>30.2205</latitude>
    <longitude>120.1638</longitude>
    <campus>之江</campus>
    <city>杭州</city>
  </location>
  <location>
    <deal_id>ewavwzek</deal_id>
    <shop_id></shop_id>
    <address>德胜路15号-1德胜乐购往东斜对面，众安温泉正对面</address>
    <latitude>30.2993</latitude>
    <longitude>120.1734</longitude>
    <campus>华家池</campus>
    <city>杭州</city>
  </location>
  <location>
    <deal_id>hqg0usxy</deal_id>
    <shop_id></shop_id>
    <address>德胜路138号</address>
    <latitude>30.296</latitude>
    <longitude>120.1644</longitude>
    <campus>华家池</campus>
    <city>杭州</city>
  </location>
  <location>
    <deal_id>jndmgiyz</deal_id>
    <shop_id></shop_id>
    <address>平海路25号</address>
    <latitude>30.2536</latitude>
    <longitude>120.1692</longitude>
    <campus>华家池</campus>
    <city>杭州</city>
  </location>
  <location>
    <deal_id>gzrzpil2</deal_id>
    <shop_id></shop_id>
    <address>江干区富春路701号万象城三层</address>
    <latitude>30.2516</latitude>
    <longitude>120.2146</longitude>
    <campus>华家池</campus>
    <city>杭州</city>
  </location>
  <location>
    <deal_id>lnyo3f4e</deal_id>
    <shop_id></shop_id>
    <address>千岛湖景区</address>
    <latitude>29.3736</latitude>
    <longitude>119.0081</longitude>
    <campus>之江</campus>
    <city>杭州</city>
  </location>
  <location>
    <deal_id>fyg2x1i9</deal_id>
    <shop_id></shop_id>
    <address>延安路98号银泰百货3楼(近吴山广场)</address>
    <latitude>30.2441</latitude>
    <longitude>120.1648</longitude>
    <campus>华家池</campus>
    <city>杭州</city>
  </location>
  <location>
    <deal_id>fyg2x1i9</deal_id>
    <shop_id></shop_id>
    <address>天目山路160号国际花园2楼(教工路口)</address>
    <latitude>30.2713</latitude>
    <longitude>120.137</longitude>
    <campus>西溪</campus>
    <city>杭州</city>
  </location>
  <location>
    <deal_id>fyg2x1i9</deal_id>
    <shop_id></shop_id>
    <address>文一路308号中竹大厦1-3楼(近物美超市)</address>
    <latitude>30.2875</latitude>
    <longitude>120.1211</longitude>
    <campus>西溪</campus>
    <city>杭州</city>
  </location>
  <location>
    <deal_id>ej64az48</deal_id>
    <shop_id></shop_id>
    <address>延安路98号银泰百货3楼(近吴山广场)</address>
    <latitude>30.2441</latitude>
    <longitude>120.1648</longitude>
    <campus>华家池</campus>
    <city>杭州</city>
  </location>
  <location>
    <deal_id>ej64az48</deal_id>
    <shop_id></shop_id>
    <address>天目山路160号国际花园2楼(教工路口)</address>
    <latitude>30.2713</latitude>
    <longitude>120.137</longitude>
    <campus>西溪</campus>
    <city>杭州</city>
  </location>
  <location>
    <deal_id>ej64az48</deal_id>
    <shop_id></shop_id>
    <address>文一路308号中竹大厦1-3楼(近物美超市)</address>
    <latitude>30.2875</latitude>
    <longitude>120.1211</longitude>
    <campus>西溪</campus>
    <city>杭州</city>
  </location>
  <location>
    <deal_id>c3rwdfhq</deal_id>
    <shop_id></shop_id>
    <address>香积寺路21号(三塘竹苑)</address>
    <latitude>30.2529</latitude>
    <longitude>120.2132</longitude>
    <campus>华家池</campus>
    <city>杭州</city>
  </location>
  <location>
    <deal_id>6cgssayf</deal_id>
    <shop_id></shop_id>
    <address>上城区延安路179号解百新元华大厦5楼(近解放路</address>
    <latitude>30.2493</latitude>
    <longitude>120.1645</longitude>
    <campus>华家池</campus>
    <city>杭州</city>
  </location>
  <location>
    <deal_id>ka4320tt</deal_id>
    <shop_id></shop_id>
    <address>下城区延安路18号天风商厦B1楼</address>
    <latitude>30.2406</latitude>
    <longitude>120.1656</longitude>
    <campus>华家池</campus>
    <city>杭州</city>
  </location>
  <location>
    <deal_id>tzql5va3</deal_id>
    <shop_id></shop_id>
    <address>庆春路36号三瑞大厦4楼</address>
    <latitude>30.2575</latitude>
    <longitude>120.1838</longitude>
    <campus>华家池</campus>
    <city>杭州</city>
  </location>
  <location>
    <deal_id>xvrfllno</deal_id>
    <shop_id></shop_id>
    <address>新塘路35号三新大厦三/四楼</address>
    <latitude>30.2598</latitude>
    <longitude>120.2071</longitude>
    <campus>华家池</campus>
    <city>杭州</city>
  </location>
  <location>
    <deal_id>hzF29</deal_id>
    <shop_id></shop_id>
    <address>石祥路589号杭州汽车城C馆7楼(近汽车北站)</address>
    <latitude>30.3328</latitude>
    <longitude>120.1513</longitude>
    <campus>西溪</campus>
    <city>杭州</city>
  </location>
  <location>
    <deal_id>dog82hrk</deal_id>
    <shop_id></shop_id>
    <address>中河中路250号改革月报大楼9层EXIT-Club旗舰店</address>
    <latitude>30.2575</latitude>
    <longitude>120.1722</longitude>
    <campus>华家池</campus>
    <city>杭州</city>
  </location>
  <location>
    <deal_id>dog82hrk</deal_id>
    <shop_id></shop_id>
    <address>十全街263号麦禾酒店十全店</address>
    <latitude>31.2986</latitude>
    <longitude>120.639</longitude>
    <campus>华家池</campus>
    <city>杭州</city>
  </location>
  <location>
    <deal_id>dog82hrk</deal_id>
    <shop_id></shop_id>
    <address>前街16号星程海招酒店</address>
    <latitude>29.8735</latitude>
    <longitude>121.5515</longitude>
    <campus>华家池</campus>
    <city>杭州</city>
  </location>
  <location>
    <deal_id>s0yo8nm1</deal_id>
    <shop_id></shop_id>
    <address>新塘路35号三新大厦三/四楼</address>
    <latitude>30.2598</latitude>
    <longitude>120.2071</longitude>
    <campus>华家池</campus>
    <city>杭州</city>
  </location>
  <location>
    <deal_id>r77fbvub</deal_id>
    <shop_id></shop_id>
    <address>大兜路158号</address>
    <latitude>30.2983</latitude>
    <longitude>120.1455</longitude>
    <campus>西溪</campus>
    <city>杭州</city>
  </location>
  <location>
    <deal_id>wkrup7ty</deal_id>
    <shop_id></shop_id>
    <address>萧山区义桥东方文化园</address>
    <latitude>30.0999</latitude>
    <longitude>120.2016</longitude>
    <campus>之江</campus>
    <city>杭州</city>
  </location>
  <location>
    <deal_id>kqagfd4w</deal_id>
    <shop_id></shop_id>
    <address>金华路锦昌文华苑83号(近登云路)</address>
    <latitude>30.3168</latitude>
    <longitude>120.1423</longitude>
    <campus>西溪</campus>
    <city>杭州</city>
  </location>
  <location>
    <deal_id>kqagfd4w</deal_id>
    <shop_id></shop_id>
    <address>古墩路亲亲家园三和大街5号</address>
    <latitude>30.335</latitude>
    <longitude>120.0863</longitude>
    <campus>紫金港</campus>
    <city>杭州</city>
  </location>
  <location>
    <deal_id>fzlgkefr</deal_id>
    <shop_id></shop_id>
    <address>武林门码头</address>
    <latitude>30.2731</latitude>
    <longitude>120.1629</longitude>
    <campus>华家池</campus>
    <city>杭州</city>
  </location>
  <location>
    <deal_id>sn1zxt8k</deal_id>
    <shop_id></shop_id>
    <address>下城区文晖路448号星都宾馆3楼(近武林小广场)</address>
    <latitude>30.274</latitude>
    <longitude>120.155</longitude>
    <campus>西溪</campus>
    <city>杭州</city>
  </location>
  <location>
    <deal_id>cjgy4hua</deal_id>
    <shop_id></shop_id>
    <address>萧山区义桥东方文化园</address>
    <latitude>30.0999</latitude>
    <longitude>120.2016</longitude>
    <campus>之江</campus>
    <city>杭州</city>
  </location>
  <location>
    <deal_id>tm9j4w7u</deal_id>
    <shop_id></shop_id>
    <address>西湖区教工路250号（文一路与教工路交叉口悦臣大酒店）</address>
    <latitude>30.2885</latitude>
    <longitude>120.1359</longitude>
    <campus>西溪</campus>
    <city>杭州</city>
  </location>
  <location>
    <deal_id>ecew3a2o</deal_id>
    <shop_id></shop_id>
    <address>中山北路171号</address>
    <latitude>30.2614</latitude>
    <longitude>120.1695</longitude>
    <campus>华家池</campus>
    <city>杭州</city>
  </location>
  <location>
    <deal_id>ecew3a2o</deal_id>
    <shop_id></shop_id>
    <address>古墩路298号</address>
    <latitude>30.2788</latitude>
    <longitude>120.1009</longitude>
    <campus>玉泉</campus>
    <city>杭州</city>
  </location>
  <location>
    <deal_id>aPyLHDyz</deal_id>
    <shop_id></shop_id>
    <address>昆山市周庄镇全福路121号</address>
    <latitude>31.1161</latitude>
    <longitude>120.8473</longitude>
    <campus>华家池</campus>
    <city>杭州</city>
  </location>
  <location>
    <deal_id>ealdup0b</deal_id>
    <shop_id></shop_id>
    <address>象山石浦中国渔村</address>
    <latitude>29.237</latitude>
    <longitude>121.9597</longitude>
    <campus>华家池</campus>
    <city>杭州</city>
  </location>
  <location>
    <deal_id>3kvynr6r</deal_id>
    <shop_id></shop_id>
    <address>黄龙路1号黄龙体育中心内(体育场11号门对面)</address>
    <latitude>30.2668</latitude>
    <longitude>120.1318</longitude>
    <campus>西溪</campus>
    <city>杭州</city>
  </location>
  <location>
    <deal_id>5q1o5wov</deal_id>
    <shop_id></shop_id>
    <address>黄龙路1号黄龙体育中心内(体育场11号门对面)</address>
    <latitude>30.2668</latitude>
    <longitude>120.1318</longitude>
    <campus>西溪</campus>
    <city>杭州</city>
  </location>
  <location>
    <deal_id>8qfnaekk</deal_id>
    <shop_id></shop_id>
    <address>大井路67号（近河坊街）</address>
    <latitude>30.2395</latitude>
    <longitude>120.173</longitude>
    <campus>华家池</campus>
    <city>杭州</city>
  </location>
  <location>
    <deal_id>ykektsi0</deal_id>
    <shop_id></shop_id>
    <address>杭州市拱墅区珠儿潭巷10号，老区政府内，湖墅北路信义坊旁</address>
    <latitude>30.2958</latitude>
    <longitude>120.1448</longitude>
    <campus>西溪</campus>
    <city>杭州</city>
  </location>
  <location>
    <deal_id>ykektsi0</deal_id>
    <shop_id></shop_id>
    <address>梵荣舞蹈勾庄店地址：良渚勾庄路98号。</address>
    <latitude>30.3547</latitude>
    <longitude>120.0848</longitude>
    <campus>紫金港</campus>
    <city>杭州</city>
  </location>
  <location>
    <deal_id>ghnforpn</deal_id>
    <shop_id></shop_id>
    <address>千岛湖景区</address>
    <latitude>29.3736</latitude>
    <longitude>119.0081</longitude>
    <campus>之江</campus>
    <city>杭州</city>
  </location>
  <location>
    <deal_id>9rfavrpp</deal_id>
    <shop_id></shop_id>
    <address>苏州市万达广场B座906</address>
    <latitude>31.1127</latitude>
    <longitude>120.8492</longitude>
    <campus>华家池</campus>
    <city>杭州</city>
  </location>
  <location>
    <deal_id>9gnghpjv</deal_id>
    <shop_id></shop_id>
    <address>桐庐县凤川镇凤源村</address>
    <latitude>29.7925</latitude>
    <longitude>119.6918</longitude>
    <campus>之江</campus>
    <city>杭州</city>
  </location>
  <location>
    <deal_id>9gnghpjv</deal_id>
    <shop_id></shop_id>
    <address>青浦区朱家角镇金商公路大观园702号民族文化村</address>
    <latitude>31.0726</latitude>
    <longitude>120.911</longitude>
    <campus>华家池</campus>
    <city>杭州</city>
  </location>
  <location>
    <deal_id>elitry4n</deal_id>
    <shop_id></shop_id>
    <address>下城区凤起东路338号时代大厦501室</address>
    <latitude>30.2627</latitude>
    <longitude>120.208</longitude>
    <campus>华家池</campus>
    <city>杭州</city>
  </location>
  <location>
    <deal_id>elitry4n</deal_id>
    <shop_id></shop_id>
    <address>杨公堤18号</address>
    <latitude>30.2338</latitude>
    <longitude>120.1268</longitude>
    <campus>玉泉</campus>
    <city>杭州</city>
  </location>
  <location>
    <deal_id>f2kwprxi</deal_id>
    <shop_id></shop_id>
    <address>玄武区北京东路31号工艺美术大厦9楼933室</address>
    <latitude>32.0583</latitude>
    <longitude>118.7893</longitude>
    <campus>紫金港</campus>
    <city>杭州</city>
  </location>
  <location>
    <deal_id>b8xrzo51</deal_id>
    <shop_id></shop_id>
    <address>千岛湖景区</address>
    <latitude>29.3736</latitude>
    <longitude>119.0081</longitude>
    <campus>之江</campus>
    <city>杭州</city>
  </location>
  <location>
    <deal_id>l1oxzpbl</deal_id>
    <shop_id></shop_id>
    <address>柯桥104国道旁</address>
    <latitude>30.0371</latitude>
    <longitude>120.5281</longitude>
    <campus>华家池</campus>
    <city>杭州</city>
  </location>
  <location>
    <deal_id>lxsqpt79</deal_id>
    <shop_id></shop_id>
    <address>塘西古镇</address>
    <latitude>30.4222</latitude>
    <longitude>118.9737</longitude>
    <campus>紫金港</campus>
    <city>杭州</city>
  </location>
  <location>
    <deal_id>xveqv2ae</deal_id>
    <shop_id></shop_id>
    <address>之江路540号(近美政花苑)</address>
    <latitude>30.2087</latitude>
    <longitude>120.1695</longitude>
    <campus>之江</campus>
    <city>杭州</city>
  </location>
  <location>
    <deal_id>bqgzh87j</deal_id>
    <shop_id></shop_id>
    <address>朝晖路179号嘉汇大厦2号楼3-4</address>
    <latitude>30.2762</latitude>
    <longitude>120.1714</longitude>
    <campus>华家池</campus>
    <city>杭州</city>
  </location>
  <location>
    <deal_id>fut6afo3</deal_id>
    <shop_id></shop_id>
    <address>朝晖路207号深蓝广场109室(近上塘高架)</address>
    <latitude>30.2529</latitude>
    <longitude>120.2132</longitude>
    <campus>华家池</campus>
    <city>杭州</city>
  </location>
  <location>
    <deal_id>fut6afo3</deal_id>
    <shop_id></shop_id>
    <address>武林路桃花河弄7号武林药店(近武林小广场)</address>
    <latitude>30.2687</latitude>
    <longitude>120.1596</longitude>
    <campus>西溪</campus>
    <city>杭州</city>
  </location>
  <location>
    <deal_id>fut6afo3</deal_id>
    <shop_id></shop_id>
    <address>学院路254号（梧桐公寓</address>
    <latitude>30.2863</latitude>
    <longitude>120.1298</longitude>
    <campus>西溪</campus>
    <city>杭州</city>
  </location>
  <location>
    <deal_id>fut6afo3</deal_id>
    <shop_id></shop_id>
    <address>杭大路8号（黄龙世纪广场对面）</address>
    <latitude>30.2683</latitude>
    <longitude>120.1414</longitude>
    <campus>西溪</campus>
    <city>杭州</city>
  </location>
  <location>
    <deal_id>fut6afo3</deal_id>
    <shop_id></shop_id>
    <address>滨盛路4148号国信嘉园12幢</address>
    <latitude>30.2081</latitude>
    <longitude>120.1204</longitude>
    <campus>之江</campus>
    <city>杭州</city>
  </location>
  <location>
    <deal_id>fut6afo3</deal_id>
    <shop_id></shop_id>
    <address>西湖国贸一楼太平里3号（西湖时代广场旁）  </address>
    <latitude>30.267</latitude>
    <longitude>120.1615</longitude>
    <campus>华家池</campus>
    <city>杭州</city>
  </location>
  <location>
    <deal_id>fut6afo3</deal_id>
    <shop_id></shop_id>
    <address>莫干山路224号</address>
    <latitude>30.2733</latitude>
    <longitude>120.1555</longitude>
    <campus>西溪</campus>
    <city>杭州</city>
  </location>
  <location>
    <deal_id>fut6afo3</deal_id>
    <shop_id></shop_id>
    <address>江城路256-23号（近六部桥直接）</address>
    <latitude>30.2269</latitude>
    <longitude>120.1737</longitude>
    <campus>华家池</campus>
    <city>杭州</city>
  </location>
  <location>
    <deal_id>bmmafaj7</deal_id>
    <shop_id></shop_id>
    <address>下城区中河北路69号意盛商务大厦4楼</address>
    <latitude>30.265</latitude>
    <longitude>120.1714</longitude>
    <campus>华家池</campus>
    <city>杭州</city>
  </location>
  <location>
    <deal_id>bmmafaj7</deal_id>
    <shop_id></shop_id>
    <address>萧山区通惠中路泰富广场25楼2503室</address>
    <latitude>30.1741</latitude>
    <longitude>120.2867</longitude>
    <campus>华家池</campus>
    <city>杭州</city>
  </location>
  <location>
    <deal_id>bmmafaj7</deal_id>
    <shop_id></shop_id>
    <address>上城区解放路176科技大厦1001室</address>
    <latitude>30.253</latitude>
    <longitude>120.2133</longitude>
    <campus>华家池</campus>
    <city>杭州</city>
  </location>
  <location>
    <deal_id>bmmafaj7</deal_id>
    <shop_id></shop_id>
    <address>上城区西湖大道41号万新大厦4号楼807室</address>
    <latitude>30.2449</latitude>
    <longitude>120.1769</longitude>
    <campus>华家池</campus>
    <city>杭州</city>
  </location>
  <location>
    <deal_id>bmmafaj7</deal_id>
    <shop_id></shop_id>
    <address>下城区凤起路369号国都公寓10幢404室(中山北路口)</address>
    <latitude>30.2637</latitude>
    <longitude>120.1686</longitude>
    <campus>华家池</campus>
    <city>杭州</city>
  </location>
  <location>
    <deal_id>bmmafaj7</deal_id>
    <shop_id></shop_id>
    <address>上城区延安路126号耀江广厦A座5020室(西湖大道口)</address>
    <latitude>30.2451</latitude>
    <longitude>120.1652</longitude>
    <campus>华家池</campus>
    <city>杭州</city>
  </location>
  <location>
    <deal_id>bmmafaj7</deal_id>
    <shop_id></shop_id>
    <address>西湖区文一路389号翠苑三区15幢</address>
    <latitude>30.2894</latitude>
    <longitude>120.1197</longitude>
    <campus>西溪</campus>
    <city>杭州</city>
  </location>
  <location>
    <deal_id>bmmafaj7</deal_id>
    <shop_id></shop_id>
    <address>江干区庆春东路外海宾馆551室(双菱路口)</address>
    <latitude>30.2577</latitude>
    <longitude>120.1959</longitude>
    <campus>华家池</campus>
    <city>杭州</city>
  </location>
  <location>
    <deal_id>bmmafaj7</deal_id>
    <shop_id></shop_id>
    <address>下城区武林路100号宏鼎商务楼217室(爱情故事旁)</address>
    <latitude>30.2595</latitude>
    <longitude>120.1611</longitude>
    <campus>华家池</campus>
    <city>杭州</city>
  </location>
  <location>
    <deal_id>bmmafaj7</deal_id>
    <shop_id></shop_id>
    <address>下城区孩儿巷广福公寓综合楼902室(延安路口)</address>
    <latitude>30.2618</latitude>
    <longitude>120.1651</longitude>
    <campus>华家池</campus>
    <city>杭州</city>
  </location>
  <location>
    <deal_id>bmmafaj7</deal_id>
    <shop_id></shop_id>
    <address>下城区体育场路596号西湖综合开发大楼2楼(保俶路乔治旁)</address>
    <latitude>30.2678</latitude>
    <longitude>120.15</longitude>
    <campus>西溪</campus>
    <city>杭州</city>
  </location>
  <location>
    <deal_id>bmmafaj7</deal_id>
    <shop_id></shop_id>
    <address>下城区新华路9号铭和商务楼401室(近世纪联华大卖场)</address>
    <latitude>30.2576</latitude>
    <longitude>120.1758</longitude>
    <campus>华家池</campus>
    <city>杭州</city>
  </location>
  <location>
    <deal_id>bmmafaj7</deal_id>
    <shop_id></shop_id>
    <address>萧山区市心南路139号世纪广场C座402室</address>
    <latitude>30.253</latitude>
    <longitude>120.2133</longitude>
    <campus>华家池</campus>
    <city>杭州</city>
  </location>
  <location>
    <deal_id>bmmafaj7</deal_id>
    <shop_id></shop_id>
    <address>萧山区西河路186号(体育路口)</address>
    <latitude>30.1585</latitude>
    <longitude>120.2656</longitude>
    <campus>华家池</campus>
    <city>杭州</city>
  </location>
  <location>
    <deal_id>bmmafaj7</deal_id>
    <shop_id></shop_id>
    <address>上城区平海路58号平海旺角大厦1002室(延安路口)</address>
    <latitude>30.2538</latitude>
    <longitude>120.1663</longitude>
    <campus>华家池</campus>
    <city>杭州</city>
  </location>
  <location>
    <deal_id>mcofx0kf</deal_id>
    <shop_id></shop_id>
    <address>延安路176号</address>
    <latitude>30.247</latitude>
    <longitude>120.1651</longitude>
    <campus>华家池</campus>
    <city>杭州</city>
  </location>
  <location>
    <deal_id>mcofx0kf</deal_id>
    <shop_id></shop_id>
    <address>延安南路西湖大道涌金广场6F</address>
    <latitude>30.2465</latitude>
    <longitude>120.1646</longitude>
    <campus>华家池</campus>
    <city>杭州</city>
  </location>
  <location>
    <deal_id>c8fhlmsh</deal_id>
    <shop_id></shop_id>
    <address>余杭塘路43-3号（唐尚433创意园区内）</address>
    <latitude>30.293</latitude>
    <longitude>120.1389</longitude>
    <campus>西溪</campus>
    <city>杭州</city>
  </location>
  <location>
    <deal_id>vjt4ybnd</deal_id>
    <shop_id></shop_id>
    <address>庆春路227号西湖时代广场太平里3号(近海华大酒店) &#13;
</address>
    <latitude>30.2583</latitude>
    <longitude>120.1607</longitude>
    <campus>华家池</campus>
    <city>杭州</city>
  </location>
  <location>
    <deal_id>uc1zi7t2</deal_id>
    <shop_id></shop_id>
    <address>凤起路285号纬成大厦3楼(环北小商品市场旁)</address>
    <latitude>30.2637</latitude>
    <longitude>120.1731</longitude>
    <campus>华家池</campus>
    <city>杭州</city>
  </location>
  <location>
    <deal_id>vknm1zu0</deal_id>
    <shop_id></shop_id>
    <address>仙林桥直街21号近仙林桥农贸市场</address>
    <latitude>30.2594</latitude>
    <longitude>120.1707</longitude>
    <campus>华家池</campus>
    <city>杭州</city>
  </location>
  <location>
    <deal_id>qkajo7jh</deal_id>
    <shop_id></shop_id>
    <address>建华南路17号现代柏联大厦2楼</address>
    <latitude>39.9034</latitude>
    <longitude>116.4438</longitude>
    <campus>紫金港</campus>
    <city>杭州</city>
  </location>
  <location>
    <deal_id>qkajo7jh</deal_id>
    <shop_id></shop_id>
    <address>海淀北一街2号首创拓展大厦9层</address>
    <latitude>39.9835</latitude>
    <longitude>116.3126</longitude>
    <campus>紫金港</campus>
    <city>杭州</city>
  </location>
  <location>
    <deal_id>qkajo7jh</deal_id>
    <shop_id></shop_id>
    <address>昆明湖南路9号</address>
    <latitude>39.9648</latitude>
    <longitude>116.2714</longitude>
    <campus>紫金港</campus>
    <city>杭州</city>
  </location>
  <location>
    <deal_id>qkajo7jh</deal_id>
    <shop_id></shop_id>
    <address>浦东大道2554-1号楼3层(近居家桥路苏宁电器楼上)</address>
    <latitude>31.2592</latitude>
    <longitude>121.5622</longitude>
    <campus>华家池</campus>
    <city>杭州</city>
  </location>
  <location>
    <deal_id>qkajo7jh</deal_id>
    <shop_id></shop_id>
    <address>国宾路36号万达广场B座5层</address>
    <latitude>31.3006</latitude>
    <longitude>121.5139</longitude>
    <campus>华家池</campus>
    <city>杭州</city>
  </location>
  <location>
    <deal_id>qkajo7jh</deal_id>
    <shop_id></shop_id>
    <address>东方一路华港花园20-24号3层</address>
    <latitude>23.1321</latitude>
    <longitude>113.3582</longitude>
    <campus>之江</campus>
    <city>杭州</city>
  </location>
  <location>
    <deal_id>qkajo7jh</deal_id>
    <shop_id></shop_id>
    <address>将台路丽都饭店5号商业楼3层</address>
    <latitude>39.9718</latitude>
    <longitude>116.4947</longitude>
    <campus>紫金港</campus>
    <city>杭州</city>
  </location>
  <location>
    <deal_id>qkajo7jh</deal_id>
    <shop_id></shop_id>
    <address>定西路1018号2层</address>
    <latitude>31.2112</latitude>
    <longitude>121.4235</longitude>
    <campus>华家池</campus>
    <city>杭州</city>
  </location>
  <location>
    <deal_id>qkajo7jh</deal_id>
    <shop_id></shop_id>
    <address>百联中环购物广场4层（观光8号电梯上）</address>
    <latitude>31.245</latitude>
    <longitude>121.3844</longitude>
    <campus>华家池</campus>
    <city>杭州</city>
  </location>
  <location>
    <deal_id>qkajo7jh</deal_id>
    <shop_id></shop_id>
    <address>南京市中山东路145号全民健身中心19F</address>
    <latitude>32.0403</latitude>
    <longitude>118.7864</longitude>
    <campus>紫金港</campus>
    <city>杭州</city>
  </location>
  <location>
    <deal_id>qkajo7jh</deal_id>
    <shop_id></shop_id>
    <address>宣武门外大街甲1号环球财讯中心D座M楼、2楼</address>
    <latitude>39.8982</latitude>
    <longitude>116.3742</longitude>
    <campus>紫金港</campus>
    <city>杭州</city>
  </location>
  <location>
    <deal_id>qkajo7jh</deal_id>
    <shop_id></shop_id>
    <address>静安区康定路1437号（鑫康苑2层）</address>
    <latitude>31.2316</latitude>
    <longitude>121.4424</longitude>
    <campus>华家池</campus>
    <city>杭州</city>
  </location>
  <location>
    <deal_id>qkajo7jh</deal_id>
    <shop_id></shop_id>
    <address>海淀北一街2号首创拓展大厦7层</address>
    <latitude>39.9835</latitude>
    <longitude>116.3126</longitude>
    <campus>紫金港</campus>
    <city>杭州</city>
  </location>
  <location>
    <deal_id>qkajo7jh</deal_id>
    <shop_id></shop_id>
    <address>中央路19号金峰大厦3层</address>
    <latitude>32.0622</latitude>
    <longitude>118.7834</longitude>
    <campus>紫金港</campus>
    <city>杭州</city>
  </location>
  <location>
    <deal_id>qkajo7jh</deal_id>
    <shop_id></shop_id>
    <address>文二西路718号西溪创意大厦1层、2层</address>
    <latitude>30.2807</latitude>
    <longitude>120.0851</longitude>
    <campus>紫金港</campus>
    <city>杭州</city>
  </location>
  <location>
    <deal_id>qkajo7jh</deal_id>
    <shop_id></shop_id>
    <address>环市东路496号广发花园大厦3、4层</address>
    <latitude>23.1342</latitude>
    <longitude>113.3083</longitude>
    <campus>之江</campus>
    <city>杭州</city>
  </location>
  <location>
    <deal_id>qkajo7jh</deal_id>
    <shop_id></shop_id>
    <address>二环路西一段置信路1号4-5层</address>
    <latitude>30.6478</latitude>
    <longitude>104.0218</longitude>
    <campus>紫金港</campus>
    <city>杭州</city>
  </location>
  <location>
    <deal_id>qkajo7jh</deal_id>
    <shop_id></shop_id>
    <address>宝安南路3044号天地大厦1、3楼</address>
    <latitude>22.5529</latitude>
    <longitude>114.1095</longitude>
    <campus>之江</campus>
    <city>杭州</city>
  </location>
  <location>
    <deal_id>qkajo7jh</deal_id>
    <shop_id></shop_id>
    <address>东滨路汇滨广场二期裙楼1-3层</address>
    <latitude>22.5118</latitude>
    <longitude>113.9161</longitude>
    <campus>之江</campus>
    <city>杭州</city>
  </location>
  <location>
    <deal_id>qkajo7jh</deal_id>
    <shop_id></shop_id>
    <address>滨河路北彩田路东交汇处联合广场B座裙楼B201、203</address>
    <latitude>22.53</latitude>
    <longitude>114.0688</longitude>
    <campus>之江</campus>
    <city>杭州</city>
  </location>
  <location>
    <deal_id>urey7lsk</deal_id>
    <shop_id></shop_id>
    <address>霞湾巷343号（许府牛杂对面）</address>
    <latitude>30.2971</latitude>
    <longitude>120.1566</longitude>
    <campus>西溪</campus>
    <city>杭州</city>
  </location>
  <location>
    <deal_id>pikxu2hm</deal_id>
    <shop_id></shop_id>
    <address>教工路162号</address>
    <latitude>30.281</latitude>
    <longitude>120.1365</longitude>
    <campus>西溪</campus>
    <city>杭州</city>
  </location>
  <location>
    <deal_id>reh92kta</deal_id>
    <shop_id></shop_id>
    <address>中山中路555号(近娃哈哈美食城)</address>
    <latitude>30.2573</latitude>
    <longitude>120.1693</longitude>
    <campus>华家池</campus>
    <city>杭州</city>
  </location>
  <location>
    <deal_id>0y2ew9ve</deal_id>
    <shop_id></shop_id>
    <address>广业路长青嘉苑2幢122-124号</address>
    <latitude>30.3345</latitude>
    <longitude>120.0974</longitude>
    <campus>紫金港</campus>
    <city>杭州</city>
  </location>
  <location>
    <deal_id>2reuqhfw</deal_id>
    <shop_id></shop_id>
    <address>建国北路59号2楼(近五洋宾馆)</address>
    <latitude>30.2597</latitude>
    <longitude>120.1811</longitude>
    <campus>华家池</campus>
    <city>杭州</city>
  </location>
  <location>
    <deal_id>shmv5f09</deal_id>
    <shop_id></shop_id>
    <address>天运路47号</address>
    <latitude>30.2831</latitude>
    <longitude>120.2028</longitude>
    <campus>华家池</campus>
    <city>杭州</city>
  </location>
  <location>
    <deal_id>shmv5f09</deal_id>
    <shop_id></shop_id>
    <address>德胜新村20庄栋</address>
    <latitude>30.2964</latitude>
    <longitude>120.1646</longitude>
    <campus>华家池</campus>
    <city>杭州</city>
  </location>
  <location>
    <deal_id>ulu8tvql</deal_id>
    <shop_id></shop_id>
    <address>延安路378号(中国电信旁)</address>
    <latitude>30.267</latitude>
    <longitude>120.1705</longitude>
    <campus>华家池</campus>
    <city>杭州</city>
  </location>
  <location>
    <deal_id>chxmguxa</deal_id>
    <shop_id></shop_id>
    <address>近江西路25号</address>
    <latitude>30.2529</latitude>
    <longitude>120.2132</longitude>
    <campus>华家池</campus>
    <city>杭州</city>
  </location>
  <location>
    <deal_id>chxmguxa</deal_id>
    <shop_id></shop_id>
    <address>天运路47号华润万家超市旁</address>
    <latitude>30.2529</latitude>
    <longitude>120.2132</longitude>
    <campus>华家池</campus>
    <city>杭州</city>
  </location>
  <location>
    <deal_id>chxmguxa</deal_id>
    <shop_id></shop_id>
    <address>德胜新村20幢</address>
    <latitude>30.2974</latitude>
    <longitude>120.165</longitude>
    <campus>华家池</campus>
    <city>杭州</city>
  </location>
  <location>
    <deal_id>o1bdfhli</deal_id>
    <shop_id></shop_id>
    <address>城区环城东路137号沃尔玛超市</address>
    <latitude>30.2627</latitude>
    <longitude>120.1868</longitude>
    <campus>华家池</campus>
    <city>杭州</city>
  </location>
  <location>
    <deal_id>o1bdfhli</deal_id>
    <shop_id></shop_id>
    <address>文二路221号</address>
    <latitude>30.2822</latitude>
    <longitude>120.1352</longitude>
    <campus>西溪</campus>
    <city>杭州</city>
  </location>
  <location>
    <deal_id>o1bdfhli</deal_id>
    <shop_id></shop_id>
    <address>下沙高教园区学源街财经学源街桃李苑24幢底层，B1终点站往西150米</address>
    <latitude>30.3204</latitude>
    <longitude>120.3895</longitude>
    <campus>华家池</campus>
    <city>杭州</city>
  </location>
  <location>
    <deal_id>o1bdfhli</deal_id>
    <shop_id></shop_id>
    <address>下沙高教园区学源街传媒生活区东大门口</address>
    <latitude>30.3014</latitude>
    <longitude>120.3804</longitude>
    <campus>华家池</campus>
    <city>杭州</city>
  </location>
  <location>
    <deal_id>o1bdfhli</deal_id>
    <shop_id></shop_id>
    <address>文二西路76号</address>
    <latitude>30.2818</latitude>
    <longitude>120.1126</longitude>
    <campus>玉泉</campus>
    <city>杭州</city>
  </location>
  <location>
    <deal_id>f7huiqcr</deal_id>
    <shop_id></shop_id>
    <address>凤起路367号</address>
    <latitude>30.2631</latitude>
    <longitude>120.1668</longitude>
    <campus>华家池</campus>
    <city>杭州</city>
  </location>
  <location>
    <deal_id>ipkiok3k</deal_id>
    <shop_id></shop_id>
    <address>老浙大横路21号</address>
    <latitude>30.2538</latitude>
    <longitude>120.1855</longitude>
    <campus>华家池</campus>
    <city>杭州</city>
  </location>
  <location>
    <deal_id>0910y8ip</deal_id>
    <shop_id></shop_id>
    <address>西湖区教工路250号（文一路与教工路交叉口悦臣大酒店）</address>
    <latitude>30.2885</latitude>
    <longitude>120.1359</longitude>
    <campus>西溪</campus>
    <city>杭州</city>
  </location>
  <location>
    <deal_id>ao09paqd</deal_id>
    <shop_id></shop_id>
    <address>朝晖路213号中山花园风荷苑3幢9层楼痤(河东路口)</address>
    <latitude>30.2757</latitude>
    <longitude>120.1672</longitude>
    <campus>华家池</campus>
    <city>杭州</city>
  </location>
  <location>
    <deal_id>ao09paqd</deal_id>
    <shop_id></shop_id>
    <address>湖墅南路292号</address>
    <latitude>30.2869</latitude>
    <longitude>120.1515</longitude>
    <campus>西溪</campus>
    <city>杭州</city>
  </location>
  <location>
    <deal_id>ao09paqd</deal_id>
    <shop_id></shop_id>
    <address>建国北路236号诚信大厦604室</address>
    <latitude>30.2641</latitude>
    <longitude>120.1812</longitude>
    <campus>华家池</campus>
    <city>杭州</city>
  </location>
  <location>
    <deal_id>ao09paqd</deal_id>
    <shop_id></shop_id>
    <address>庆春路159号中河大厦523室(在5月10日将搬迁到庆春路137号华都大厦509室）</address>
    <latitude>30.2579</latitude>
    <longitude>120.1703</longitude>
    <campus>华家池</campus>
    <city>杭州</city>
  </location>
  <location>
    <deal_id>ao09paqd</deal_id>
    <shop_id></shop_id>
    <address>延安路百井坊巷77号百井大厦1004室</address>
    <latitude>30.2666</latitude>
    <longitude>120.1632</longitude>
    <campus>华家池</campus>
    <city>杭州</city>
  </location>
  <location>
    <deal_id>ao09paqd</deal_id>
    <shop_id></shop_id>
    <address>文三路387号华门世家C座1单元702室</address>
    <latitude>30.2768</latitude>
    <longitude>120.1306</longitude>
    <campus>西溪</campus>
    <city>杭州</city>
  </location>
  <location>
    <deal_id>ao09paqd</deal_id>
    <shop_id></shop_id>
    <address>文一西路242号</address>
    <latitude>30.2866</latitude>
    <longitude>120.0993</longitude>
    <campus>紫金港</campus>
    <city>杭州</city>
  </location>
  <location>
    <deal_id>ao09paqd</deal_id>
    <shop_id></shop_id>
    <address>拱墅区锦绣新村12栋枯树湾巷15号</address>
    <latitude>30.274</latitude>
    <longitude>120.155</longitude>
    <campus>西溪</campus>
    <city>杭州</city>
  </location>
  <location>
    <deal_id>kaokouos</deal_id>
    <shop_id></shop_id>
    <address>www.51talk.com</address>
    <latitude>39.8796</latitude>
    <longitude>116.4131</longitude>
    <campus>紫金港</campus>
    <city>杭州</city>
  </location>
  <location>
    <deal_id>vFVXWa1n</deal_id>
    <shop_id></shop_id>
    <address>苏州市金阊区石路五星电器时代晶华7楼719室</address>
    <latitude>31.3109</latitude>
    <longitude>120.6024</longitude>
    <campus>华家池</campus>
    <city>杭州</city>
  </location>
  <location>
    <deal_id>bz6qzwed</deal_id>
    <shop_id></shop_id>
    <address>建华南路17号现代柏联大厦2楼</address>
    <latitude>39.9034</latitude>
    <longitude>116.4438</longitude>
    <campus>紫金港</campus>
    <city>杭州</city>
  </location>
  <location>
    <deal_id>bz6qzwed</deal_id>
    <shop_id></shop_id>
    <address>海淀北一街2号首创拓展大厦9层</address>
    <latitude>39.9835</latitude>
    <longitude>116.3126</longitude>
    <campus>紫金港</campus>
    <city>杭州</city>
  </location>
  <location>
    <deal_id>bz6qzwed</deal_id>
    <shop_id></shop_id>
    <address>浦东大道2554-1号楼3层(近居家桥路苏宁电器楼上)</address>
    <latitude>31.2592</latitude>
    <longitude>121.5622</longitude>
    <campus>华家池</campus>
    <city>杭州</city>
  </location>
  <location>
    <deal_id>bz6qzwed</deal_id>
    <shop_id></shop_id>
    <address>国宾路36号万达广场B座5层</address>
    <latitude>31.3006</latitude>
    <longitude>121.5139</longitude>
    <campus>华家池</campus>
    <city>杭州</city>
  </location>
  <location>
    <deal_id>bz6qzwed</deal_id>
    <shop_id></shop_id>
    <address>东方一路华港花园20-24号3层</address>
    <latitude>23.1321</latitude>
    <longitude>113.3582</longitude>
    <campus>之江</campus>
    <city>杭州</city>
  </location>
  <location>
    <deal_id>bz6qzwed</deal_id>
    <shop_id></shop_id>
    <address>将台路丽都饭店5号商业楼3层</address>
    <latitude>39.9718</latitude>
    <longitude>116.4947</longitude>
    <campus>紫金港</campus>
    <city>杭州</city>
  </location>
  <location>
    <deal_id>bz6qzwed</deal_id>
    <shop_id></shop_id>
    <address>定西路1018号2层</address>
    <latitude>31.2112</latitude>
    <longitude>121.4235</longitude>
    <campus>华家池</campus>
    <city>杭州</city>
  </location>
  <location>
    <deal_id>bz6qzwed</deal_id>
    <shop_id></shop_id>
    <address>百联中环购物广场4层（观光8号电梯上）</address>
    <latitude>31.245</latitude>
    <longitude>121.3844</longitude>
    <campus>华家池</campus>
    <city>杭州</city>
  </location>
  <location>
    <deal_id>bz6qzwed</deal_id>
    <shop_id></shop_id>
    <address>南京市中山东路145号全民健身中心19F</address>
    <latitude>32.0403</latitude>
    <longitude>118.7864</longitude>
    <campus>紫金港</campus>
    <city>杭州</city>
  </location>
  <location>
    <deal_id>bz6qzwed</deal_id>
    <shop_id></shop_id>
    <address>宣武门外大街甲1号环球财讯中心D座M楼、2楼</address>
    <latitude>39.8982</latitude>
    <longitude>116.3742</longitude>
    <campus>紫金港</campus>
    <city>杭州</city>
  </location>
  <location>
    <deal_id>bz6qzwed</deal_id>
    <shop_id></shop_id>
    <address>静安区康定路1437号（鑫康苑2层）</address>
    <latitude>31.2316</latitude>
    <longitude>121.4424</longitude>
    <campus>华家池</campus>
    <city>杭州</city>
  </location>
  <location>
    <deal_id>bz6qzwed</deal_id>
    <shop_id></shop_id>
    <address>海淀北一街2号首创拓展大厦7层</address>
    <latitude>39.9835</latitude>
    <longitude>116.3126</longitude>
    <campus>紫金港</campus>
    <city>杭州</city>
  </location>
  <location>
    <deal_id>bz6qzwed</deal_id>
    <shop_id></shop_id>
    <address>中央路19号金峰大厦3层</address>
    <latitude>32.0622</latitude>
    <longitude>118.7834</longitude>
    <campus>紫金港</campus>
    <city>杭州</city>
  </location>
  <location>
    <deal_id>bz6qzwed</deal_id>
    <shop_id></shop_id>
    <address>文二西路718号西溪创意大厦1层、2层</address>
    <latitude>30.2807</latitude>
    <longitude>120.0851</longitude>
    <campus>紫金港</campus>
    <city>杭州</city>
  </location>
  <location>
    <deal_id>bz6qzwed</deal_id>
    <shop_id></shop_id>
    <address>环市东路496号广发花园大厦3、4层</address>
    <latitude>23.1342</latitude>
    <longitude>113.3083</longitude>
    <campus>之江</campus>
    <city>杭州</city>
  </location>
  <location>
    <deal_id>bz6qzwed</deal_id>
    <shop_id></shop_id>
    <address>六一北路328号金源花园三层</address>
    <latitude>26.0896</latitude>
    <longitude>119.3156</longitude>
    <campus>之江</campus>
    <city>杭州</city>
  </location>
  <location>
    <deal_id>bz6qzwed</deal_id>
    <shop_id></shop_id>
    <address>二环路西一段置信路1号4-5层</address>
    <latitude>30.6478</latitude>
    <longitude>104.0218</longitude>
    <campus>紫金港</campus>
    <city>杭州</city>
  </location>
  <location>
    <deal_id>bz6qzwed</deal_id>
    <shop_id></shop_id>
    <address>宝安南路3044号天地大厦1、3楼</address>
    <latitude>22.5529</latitude>
    <longitude>114.1095</longitude>
    <campus>之江</campus>
    <city>杭州</city>
  </location>
  <location>
    <deal_id>bz6qzwed</deal_id>
    <shop_id></shop_id>
    <address>东滨路汇滨广场二期裙楼1-3层</address>
    <latitude>22.5118</latitude>
    <longitude>113.9161</longitude>
    <campus>之江</campus>
    <city>杭州</city>
  </location>
  <location>
    <deal_id>bz6qzwed</deal_id>
