<?xml version="1.0" encoding="UTF-8"?>
<locations>
  <location>
    <deal_id>Omnia</deal_id>
    <shop_id></shop_id>
    <address>美团网是中国最早、最大、口碑最好的团购网站。目前，美团网的服务遍及中国各主要城市，通过美团，你能够以低至1折的价格享受高品质的美食、娱乐休闲、婚纱摄影、美容美发等各种本地消费。</address>
    <latitude>40.032466</latitude>
    <longitude>116.417192</longitude>
    <campus>紫金港</campus>
    <city>全国</city>
  </location>
  <location>
    <deal_id>244673</deal_id>
    <shop_id></shop_id>
    <address>杭州市江干区艮山西路184号（宏丽宾馆旁边 近秋涛北路</address>
    <latitude>30.276777</latitude>
    <longitude>120.198312</longitude>
    <campus>华家池</campus>
    <city>杭州</city>
  </location>
  <location>
    <deal_id>244673</deal_id>
    <shop_id></shop_id>
    <address>江干区秋涛北路192号</address>
    <latitude>30.275314</latitude>
    <longitude>120.200323</longitude>
    <campus>华家池</campus>
    <city>杭州</city>
  </location>
  <location>
    <deal_id>244673</deal_id>
    <shop_id></shop_id>
    <address>杭州市下城区朝晖路12号</address>
    <latitude>30.277849</latitude>
    <longitude>120.171808</longitude>
    <campus>华家池</campus>
    <city>杭州</city>
  </location>
  <location>
    <deal_id>244673</deal_id>
    <shop_id></shop_id>
    <address>天目山路357号</address>
    <latitude>30.262003</latitude>
    <longitude>120.091231</longitude>
    <campus>玉泉</campus>
    <city>杭州</city>
  </location>
  <location>
    <deal_id>244673</deal_id>
    <shop_id></shop_id>
    <address>杭州市上城区中山南路445号</address>
    <latitude>30.235851</latitude>
    <longitude>120.170921</longitude>
    <campus>华家池</campus>
    <city>杭州</city>
  </location>
  <location>
    <deal_id>244673</deal_id>
    <shop_id></shop_id>
    <address>杭州市上城区望江路69号</address>
    <latitude>30.236032</latitude>
    <longitude>120.177175</longitude>
    <campus>华家池</campus>
    <city>杭州</city>
  </location>
  <location>
    <deal_id>244673</deal_id>
    <shop_id></shop_id>
    <address>杭州市下城区戒坛寺巷20号（雷迪森大酒店左侧10米）</address>
    <latitude>30.267903</latitude>
    <longitude>120.161745</longitude>
    <campus>华家池</campus>
    <city>杭州</city>
  </location>
  <location>
    <deal_id>244673</deal_id>
    <shop_id></shop_id>
    <address>杭州市下城区体育场路279号（杭州百货大楼，银泰百货旁）</address>
    <latitude>30.269907</latitude>
    <longitude>120.166122</longitude>
    <campus>华家池</campus>
    <city>杭州</city>
  </location>
  <location>
    <deal_id>244673</deal_id>
    <shop_id></shop_id>
    <address>杭州市西湖区学院路151号</address>
    <latitude>30.285089</latitude>
    <longitude>120.129002</longitude>
    <campus>西溪</campus>
    <city>杭州</city>
  </location>
  <location>
    <deal_id>244673</deal_id>
    <shop_id></shop_id>
    <address>杭州市下城区体育场路18号</address>
    <latitude>30.270607</latitude>
    <longitude>120.185245</longitude>
    <campus>华家池</campus>
    <city>杭州</city>
  </location>
  <location>
    <deal_id>244673</deal_id>
    <shop_id></shop_id>
    <address>杭州市拱墅区莫干山路701号</address>
    <latitude>30.296332</latitude>
    <longitude>120.13973</longitude>
    <campus>西溪</campus>
    <city>杭州</city>
  </location>
  <location>
    <deal_id>244673</deal_id>
    <shop_id></shop_id>
    <address>湖墅南路488号</address>
    <latitude>30.279749</latitude>
    <longitude>120.155287</longitude>
    <campus>西溪</campus>
    <city>杭州</city>
  </location>
  <location>
    <deal_id>244673</deal_id>
    <shop_id></shop_id>
    <address>杭州市西湖区文一路294号</address>
    <latitude>30.287886</latitude>
    <longitude>120.124126</longitude>
    <campus>西溪</campus>
    <city>杭州</city>
  </location>
  <location>
    <deal_id>244673</deal_id>
    <shop_id></shop_id>
    <address>莫干山路景苑路30号（拱墅交警大队旁）</address>
    <latitude>30.299425</latitude>
    <longitude>120.132207</longitude>
    <campus>西溪</campus>
    <city>杭州</city>
  </location>
  <location>
    <deal_id>244673</deal_id>
    <shop_id></shop_id>
    <address>中山北路603号（杭州西湖文化广场旁）</address>
    <latitude>30.279012</latitude>
    <longitude>120.164567</longitude>
    <campus>华家池</campus>
    <city>杭州</city>
  </location>
  <location>
    <deal_id>244673</deal_id>
    <shop_id></shop_id>
    <address>天目山路325号(靠近天目山路古墩路路口)</address>
    <latitude>30.264195</latitude>
    <longitude>120.099688</longitude>
    <campus>玉泉</campus>
    <city>杭州</city>
  </location>
  <location>
    <deal_id>244673</deal_id>
    <shop_id></shop_id>
    <address>池塘巷7号（环北市场后门）</address>
    <latitude>30.262173</latitude>
    <longitude>120.172755</longitude>
    <campus>华家池</campus>
    <city>杭州</city>
  </location>
  <location>
    <deal_id>244673</deal_id>
    <shop_id></shop_id>
    <address>中山中路251号（近西湖大道口）</address>
    <latitude>30.246162</latitude>
    <longitude>120.17043</longitude>
    <campus>华家池</campus>
    <city>杭州</city>
  </location>
  <location>
    <deal_id>581740</deal_id>
    <shop_id></shop_id>
    <address>下城区绍兴路158号和平国际会展中心4楼</address>
    <latitude>30.290418</latitude>
    <longitude>120.175521</longitude>
    <campus>华家池</campus>
    <city>杭州</city>
  </location>
  <location>
    <deal_id>581740</deal_id>
    <shop_id></shop_id>
    <address>上城区解放路91号天工艺苑6楼（建国路口）</address>
    <latitude>30.25035</latitude>
    <longitude>120.178032</longitude>
    <campus>华家池</campus>
    <city>杭州</city>
  </location>
  <location>
    <deal_id>581740</deal_id>
    <shop_id></shop_id>
    <address>江干区双菱路77号（近庆春东路）</address>
    <latitude>30.259316</latitude>
    <longitude>120.195239</longitude>
    <campus>华家池</campus>
    <city>杭州</city>
  </location>
  <location>
    <deal_id>581740</deal_id>
    <shop_id></shop_id>
    <address>江干区富春路701号万象城内（庆春东路口）</address>
    <latitude>30.251669</latitude>
    <longitude>120.215099</longitude>
    <campus>华家池</campus>
    <city>杭州</city>
  </location>
  <location>
    <deal_id>645546</deal_id>
    <shop_id></shop_id>
    <address>延安路229-1号东坡宾馆2楼</address>
    <latitude>30.253282</latitude>
    <longitude>120.163938</longitude>
    <campus>华家池</campus>
    <city>杭州</city>
  </location>
  <location>
    <deal_id>645546</deal_id>
    <shop_id></shop_id>
    <address>拱墅区湖墅南路146号</address>
    <latitude>30.279821</latitude>
    <longitude>120.154629</longitude>
    <campus>西溪</campus>
    <city>杭州</city>
  </location>
  <location>
    <deal_id>517729</deal_id>
    <shop_id></shop_id>
    <address>市心中路400号金茂大厦二楼（北干肯德基楼上）
</address>
    <latitude>30.174214</latitude>
    <longitude>120.26726</longitude>
    <campus>华家池</campus>
    <city>杭州</city>
  </location>
  <location>
    <deal_id>242233</deal_id>
    <shop_id></shop_id>
    <address>富春路701号万象城三层</address>
    <latitude>30.252201</latitude>
    <longitude>120.216278</longitude>
    <campus>华家池</campus>
    <city>杭州</city>
  </location>
  <location>
    <deal_id>117611</deal_id>
    <shop_id></shop_id>
    <address>明德路727号</address>
    <latitude>30.164551</latitude>
    <longitude>120.158655</longitude>
    <campus>之江</campus>
    <city>杭州</city>
  </location>
  <location>
    <deal_id>727854</deal_id>
    <shop_id></shop_id>
    <address>凤起路288号</address>
    <latitude>30.264825</latitude>
    <longitude>120.169985</longitude>
    <campus>华家池</campus>
    <city>杭州</city>
  </location>
  <location>
    <deal_id>727854</deal_id>
    <shop_id></shop_id>
    <address>体育场路426号</address>
    <latitude>30.270984</latitude>
    <longitude>120.156704</longitude>
    <campus>西溪</campus>
    <city>杭州</city>
  </location>
  <location>
    <deal_id>727854</deal_id>
    <shop_id></shop_id>
    <address>假山路12号（近德胜新村）</address>
    <latitude>30.295934</latitude>
    <longitude>120.157944</longitude>
    <campus>西溪</campus>
    <city>杭州</city>
  </location>
  <location>
    <deal_id>727854</deal_id>
    <shop_id></shop_id>
    <address>保俶路168号（近西溪路）</address>
    <latitude>30.268383</latitude>
    <longitude>120.147122</longitude>
    <campus>西溪</campus>
    <city>杭州</city>
  </location>
  <location>
    <deal_id>727854</deal_id>
    <shop_id></shop_id>
    <address>文一西路218号春天花园2幢20号商铺</address>
    <latitude>30.287756</latitude>
    <longitude>120.100158</longitude>
    <campus>紫金港</campus>
    <city>杭州</city>
  </location>
  <location>
    <deal_id>727854</deal_id>
    <shop_id></shop_id>
    <address>长庆街20-1号</address>
    <latitude>30.260526</latitude>
    <longitude>120.174587</longitude>
    <campus>华家池</campus>
    <city>杭州</city>
  </location>
  <location>
    <deal_id>727854</deal_id>
    <shop_id></shop_id>
    <address>大浒街紫荆家园34幢103室</address>
    <latitude>30.309525</latitude>
    <longitude>120.144124</longitude>
    <campus>西溪</campus>
    <city>杭州</city>
  </location>
  <location>
    <deal_id>850378</deal_id>
    <shop_id></shop_id>
    <address>上城区近江路1号</address>
    <latitude>30.240114</latitude>
    <longitude>120.192142</longitude>
    <campus>华家池</campus>
    <city>杭州</city>
  </location>
  <location>
    <deal_id>475493</deal_id>
    <shop_id></shop_id>
    <address>文三路535号菜茵达大厦3楼(万塘路口)</address>
    <latitude>30.276102</latitude>
    <longitude>120.124043</longitude>
    <campus>西溪</campus>
    <city>杭州</city>
  </location>
  <location>
    <deal_id>475493</deal_id>
    <shop_id></shop_id>
    <address>武林路291号日月光华商厦4楼（近狮虎桥路）</address>
    <latitude>30.265861</latitude>
    <longitude>120.160229</longitude>
    <campus>西溪</campus>
    <city>杭州</city>
  </location>
  <location>
    <deal_id>475493</deal_id>
    <shop_id></shop_id>
    <address>杭州拱墅区霞湾路318号（胜利河美食街）</address>
    <latitude>30.297829</latitude>
    <longitude>120.156079</longitude>
    <campus>西溪</campus>
    <city>杭州</city>
  </location>
  <location>
    <deal_id>475493</deal_id>
    <shop_id></shop_id>
    <address>古墩路658号富源商务酒店1楼（申花路口）</address>
    <latitude>30.307</latitude>
    <longitude>120.097</longitude>
    <campus>紫金港</campus>
    <city>杭州</city>
  </location>
  <location>
    <deal_id>475493</deal_id>
    <shop_id></shop_id>
    <address>下沙文泽路99号福雷德广场2B04号</address>
    <latitude>30.316631</latitude>
    <longitude>120.3479</longitude>
    <campus>华家池</campus>
    <city>杭州</city>
  </location>
  <location>
    <deal_id>475493</deal_id>
    <shop_id></shop_id>
    <address>塘栖镇水南街7号</address>
    <latitude>30.478266</latitude>
    <longitude>120.184552</longitude>
    <campus>紫金港</campus>
    <city>杭州</city>
  </location>
  <location>
    <deal_id>475493</deal_id>
    <shop_id></shop_id>
    <address>古墩路北端铭雅苑48-16号</address>
    <latitude>30.338353</latitude>
    <longitude>120.08467</longitude>
    <campus>紫金港</campus>
    <city>杭州</city>
  </location>
  <location>
    <deal_id>475493</deal_id>
    <shop_id></shop_id>
    <address>春波路1576号乐通科技园</address>
    <latitude>30.190753</latitude>
    <longitude>120.191664</longitude>
    <campus>之江</campus>
    <city>杭州</city>
  </location>
  <location>
    <deal_id>475493</deal_id>
    <shop_id></shop_id>
    <address>金城路333号开元加州阳光3楼B区</address>
    <latitude>30.182027</latitude>
    <longitude>120.251043</longitude>
    <campus>华家池</campus>
    <city>杭州</city>
  </location>
  <location>
    <deal_id>475493</deal_id>
    <shop_id></shop_id>
    <address>钱王街南侧万华广场4楼</address>
    <latitude>30.221633</latitude>
    <longitude>119.702286</longitude>
    <campus>紫金港</campus>
    <city>杭州</city>
  </location>
  <location>
    <deal_id>475493</deal_id>
    <shop_id></shop_id>
    <address>学院路205号（近文一路）</address>
    <latitude>30.292568</latitude>
    <longitude>120.128599</longitude>
    <campus>西溪</campus>
    <city>杭州</city>
  </location>
  <location>
    <deal_id>475493</deal_id>
    <shop_id></shop_id>
    <address>湖墅南路信义坊商街2号</address>
    <latitude>30.283772</latitude>
    <longitude>120.152689</longitude>
    <campus>西溪</campus>
    <city>杭州</city>
  </location>
  <location>
    <deal_id>414720</deal_id>
    <shop_id></shop_id>
    <address>假山路5号</address>
    <latitude>30.296014</latitude>
    <longitude>120.158384</longitude>
    <campus>西溪</campus>
    <city>杭州</city>
  </location>
  <location>
    <deal_id>823522</deal_id>
    <shop_id></shop_id>
    <address>庆春路36号三瑞大厦4-5楼</address>
    <latitude>30.258416</latitude>
    <longitude>120.183522</longitude>
    <campus>华家池</campus>
    <city>杭州</city>
  </location>
  <location>
    <deal_id>823522</deal_id>
    <shop_id></shop_id>
    <address>延安路179号解百新元华大厦5楼</address>
    <latitude>30.2498</latitude>
    <longitude>120.163909</longitude>
    <campus>华家池</campus>
    <city>杭州</city>
  </location>
  <location>
    <deal_id>823522</deal_id>
    <shop_id></shop_id>
    <address>黄龙路1号黄龙体育中心正门（恒励宾馆右侧2楼）</address>
    <latitude>30.266302</latitude>
    <longitude>120.134897</longitude>
    <campus>西溪</campus>
    <city>杭州</city>
  </location>
  <location>
    <deal_id>541261</deal_id>
    <shop_id></shop_id>
    <address>文三路535号菜茵达大厦3楼(万塘路口)</address>
    <latitude>30.276102</latitude>
    <longitude>120.124043</longitude>
    <campus>西溪</campus>
    <city>杭州</city>
  </location>
  <location>
    <deal_id>541261</deal_id>
    <shop_id></shop_id>
    <address>武林路291号日月光华商厦4楼（近狮虎桥路）</address>
    <latitude>30.265861</latitude>
    <longitude>120.160229</longitude>
    <campus>西溪</campus>
    <city>杭州</city>
  </location>
  <location>
    <deal_id>541261</deal_id>
    <shop_id></shop_id>
    <address>杭州拱墅区霞湾路318号（胜利河美食街）</address>
    <latitude>30.297829</latitude>
    <longitude>120.156079</longitude>
    <campus>西溪</campus>
    <city>杭州</city>
  </location>
  <location>
    <deal_id>541261</deal_id>
    <shop_id></shop_id>
    <address>古墩路658号富源商务酒店1楼（申花路口）</address>
    <latitude>30.307</latitude>
    <longitude>120.097</longitude>
    <campus>紫金港</campus>
    <city>杭州</city>
  </location>
  <location>
    <deal_id>541261</deal_id>
    <shop_id></shop_id>
    <address>下沙文泽路99号福雷德广场2B04号</address>
    <latitude>30.316631</latitude>
    <longitude>120.3479</longitude>
    <campus>华家池</campus>
    <city>杭州</city>
  </location>
  <location>
    <deal_id>541261</deal_id>
    <shop_id></shop_id>
    <address>塘栖镇水南街7号</address>
    <latitude>30.478266</latitude>
    <longitude>120.184552</longitude>
    <campus>紫金港</campus>
    <city>杭州</city>
  </location>
  <location>
    <deal_id>541261</deal_id>
    <shop_id></shop_id>
    <address>古墩路北端铭雅苑48-16号</address>
    <latitude>30.338353</latitude>
    <longitude>120.08467</longitude>
    <campus>紫金港</campus>
    <city>杭州</city>
  </location>
  <location>
    <deal_id>541261</deal_id>
    <shop_id></shop_id>
    <address>春波路1576号乐通科技园</address>
    <latitude>30.190753</latitude>
    <longitude>120.191664</longitude>
    <campus>之江</campus>
    <city>杭州</city>
  </location>
  <location>
    <deal_id>541261</deal_id>
    <shop_id></shop_id>
    <address>金城路333号开元加州阳光3楼B区</address>
    <latitude>30.182027</latitude>
    <longitude>120.251043</longitude>
    <campus>华家池</campus>
    <city>杭州</city>
  </location>
  <location>
    <deal_id>541261</deal_id>
    <shop_id></shop_id>
    <address>钱王街南侧万华广场4楼</address>
    <latitude>30.221633</latitude>
    <longitude>119.702286</longitude>
    <campus>紫金港</campus>
    <city>杭州</city>
  </location>
  <location>
    <deal_id>541261</deal_id>
    <shop_id></shop_id>
    <address>学院路205号（近文一路）</address>
    <latitude>30.292568</latitude>
    <longitude>120.128599</longitude>
    <campus>西溪</campus>
    <city>杭州</city>
  </location>
  <location>
    <deal_id>541261</deal_id>
    <shop_id></shop_id>
    <address>湖墅南路信义坊商街2号</address>
    <latitude>30.283772</latitude>
    <longitude>120.152689</longitude>
    <campus>西溪</campus>
    <city>杭州</city>
  </location>
  <location>
    <deal_id>236621</deal_id>
    <shop_id></shop_id>
    <address>武林广场1号杭州大厦A座6层（近体育场路）</address>
    <latitude>30.272143</latitude>
    <longitude>120.161571</longitude>
    <campus>华家池</campus>
    <city>杭州</city>
  </location>
  <location>
    <deal_id>682187</deal_id>
    <shop_id></shop_id>
    <address>市心南路东侧新世纪广场D座2楼（近华夏银行）</address>
    <latitude>30.159891</latitude>
    <longitude>120.268533</longitude>
    <campus>华家池</campus>
    <city>杭州</city>
  </location>
  <location>
    <deal_id>252723</deal_id>
    <shop_id></shop_id>
    <address>嘉行公路221号（盘龙河大浴场对面）</address>
    <latitude>31.398332</latitude>
    <longitude>121.254625</longitude>
    <campus>华家池</campus>
    <city>上海,无锡,南通,扬州,镇江,泰州,杭州,宁波,嘉兴,湖州,绍兴,金华,台州,义乌</city>
  </location>
  <location>
    <deal_id>252723</deal_id>
    <shop_id></shop_id>
    <address>博乐路85号（质量监督局旁）</address>
    <latitude>31.381533</latitude>
    <longitude>121.255344</longitude>
    <campus>华家池</campus>
    <city>上海,无锡,南通,扬州,镇江,泰州,杭州,宁波,嘉兴,湖州,绍兴,金华,台州,义乌</city>
  </location>
  <location>
    <deal_id>252723</deal_id>
    <shop_id></shop_id>
    <address>安亭镇新源路888号（安亭小学旁）</address>
    <latitude>31.301415</latitude>
    <longitude>121.153307</longitude>
    <campus>华家池</campus>
    <city>上海,无锡,南通,扬州,镇江,泰州,杭州,宁波,嘉兴,湖州,绍兴,金华,台州,义乌</city>
  </location>
  <location>
    <deal_id>252723</deal_id>
    <shop_id></shop_id>
    <address>双城路436号（宝宸花园对面）</address>
    <latitude>31.390489</latitude>
    <longitude>121.493908</longitude>
    <campus>华家池</campus>
    <city>上海,无锡,南通,扬州,镇江,泰州,杭州,宁波,嘉兴,湖州,绍兴,金华,台州,义乌</city>
  </location>
  <location>
    <deal_id>252723</deal_id>
    <shop_id></shop_id>
    <address>沙埭浜路35号-39号（体育场旁，居逸宾馆旁）</address>
    <latitude>31.153208</latitude>
    <longitude>121.120046</longitude>
    <campus>华家池</campus>
    <city>上海,无锡,南通,扬州,镇江,泰州,杭州,宁波,嘉兴,湖州,绍兴,金华,台州,义乌</city>
  </location>
  <location>
    <deal_id>252723</deal_id>
    <shop_id></shop_id>
    <address>环城路980号（两岸咖啡旁）</address>
    <latitude>31.013214</latitude>
    <longitude>121.244623</longitude>
    <campus>华家池</campus>
    <city>上海,无锡,南通,扬州,镇江,泰州,杭州,宁波,嘉兴,湖州,绍兴,金华,台州,义乌</city>
  </location>
  <location>
    <deal_id>252723</deal_id>
    <shop_id></shop_id>
    <address>乐都西路835号</address>
    <latitude>31.012799</latitude>
    <longitude>121.206481</longitude>
    <campus>华家池</campus>
    <city>上海,无锡,南通,扬州,镇江,泰州,杭州,宁波,嘉兴,湖州,绍兴,金华,台州,义乌</city>
  </location>
  <location>
    <deal_id>252723</deal_id>
    <shop_id></shop_id>
    <address>莘松路1000号101室（巴比伦广场）</address>
    <latitude>31.100222</latitude>
    <longitude>121.357753</longitude>
    <campus>华家池</campus>
    <city>上海,无锡,南通,扬州,镇江,泰州,杭州,宁波,嘉兴,湖州,绍兴,金华,台州,义乌</city>
  </location>
  <location>
    <deal_id>252723</deal_id>
    <shop_id></shop_id>
    <address>上海市金山区卫清西路350号（乐购斜对面）</address>
    <latitude>30.729453</latitude>
    <longitude>121.344515</longitude>
    <campus>华家池</campus>
    <city>上海,无锡,南通,扬州,镇江,泰州,杭州,宁波,嘉兴,湖州,绍兴,金华,台州,义乌</city>
  </location>
  <location>
    <deal_id>252723</deal_id>
    <shop_id></shop_id>
    <address>上海市奉贤区解放中路51号（古华公园对面）</address>
    <latitude>30.916548</latitude>
    <longitude>121.467056</longitude>
    <campus>华家池</campus>
    <city>上海,无锡,南通,扬州,镇江,泰州,杭州,宁波,嘉兴,湖州,绍兴,金华,台州,义乌</city>
  </location>
  <location>
    <deal_id>252723</deal_id>
    <shop_id></shop_id>
    <address>川沙镇华夏东路2480号（锦江之星宾馆一楼）</address>
    <latitude>31.199673</latitude>
    <longitude>121.699767</longitude>
    <campus>华家池</campus>
    <city>上海,无锡,南通,扬州,镇江,泰州,杭州,宁波,嘉兴,湖州,绍兴,金华,台州,义乌</city>
  </location>
  <location>
    <deal_id>252723</deal_id>
    <shop_id></shop_id>
    <address>铜川路68号（弘基时尚生活中心4楼）</address>
    <latitude>31.254946</latitude>
    <longitude>121.419384</longitude>
    <campus>华家池</campus>
    <city>上海,无锡,南通,扬州,镇江,泰州,杭州,宁波,嘉兴,湖州,绍兴,金华,台州,义乌</city>
  </location>
  <location>
    <deal_id>252723</deal_id>
    <shop_id></shop_id>
    <address>宜山路455号光启城5楼501-502</address>
    <latitude>31.184639</latitude>
    <longitude>121.428593</longitude>
    <campus>华家池</campus>
    <city>上海,无锡,南通,扬州,镇江,泰州,杭州,宁波,嘉兴,湖州,绍兴,金华,台州,义乌</city>
  </location>
  <location>
    <deal_id>252723</deal_id>
    <shop_id></shop_id>
    <address>国定东路347号（关山路交叉口）</address>
    <latitude>31.29477</latitude>
    <longitude>121.519848</longitude>
    <campus>华家池</campus>
    <city>上海,无锡,南通,扬州,镇江,泰州,杭州,宁波,嘉兴,湖州,绍兴,金华,台州,义乌</city>
  </location>
  <location>
    <deal_id>252723</deal_id>
    <shop_id></shop_id>
    <address>萧绍路553号</address>
    <latitude>30.163513</latitude>
    <longitude>120.288465</longitude>
    <campus>华家池</campus>
    <city>上海,无锡,南通,扬州,镇江,泰州,杭州,宁波,嘉兴,湖州,绍兴,金华,台州,义乌</city>
  </location>
  <location>
    <deal_id>252723</deal_id>
    <shop_id></shop_id>
    <address>信义坊商业街34号（ 近湖墅南路）</address>
    <latitude>30.294093</latitude>
    <longitude>120.144329</longitude>
    <campus>西溪</campus>
    <city>上海,无锡,南通,扬州,镇江,泰州,杭州,宁波,嘉兴,湖州,绍兴,金华,台州,义乌</city>
  </location>
  <location>
    <deal_id>252723</deal_id>
    <shop_id></shop_id>
    <address>杭州市余杭区临平街道星火南路50号</address>
    <latitude>30.427749</latitude>
    <longitude>120.30011</longitude>
    <campus>华家池</campus>
    <city>上海,无锡,南通,扬州,镇江,泰州,杭州,宁波,嘉兴,湖州,绍兴,金华,台州,义乌</city>
  </location>
  <location>
    <deal_id>252723</deal_id>
    <shop_id></shop_id>
    <address>上塘路与温州路交叉口958号</address>
    <latitude>30.321297</latitude>
    <longitude>120.146035</longitude>
    <campus>西溪</campus>
    <city>上海,无锡,南通,扬州,镇江,泰州,杭州,宁波,嘉兴,湖州,绍兴,金华,台州,义乌</city>
  </location>
  <location>
    <deal_id>252723</deal_id>
    <shop_id></shop_id>
    <address>文三西路507-509号（十五中学对面）</address>
    <latitude>30.275103</latitude>
    <longitude>120.090939</longitude>
    <campus>玉泉</campus>
    <city>上海,无锡,南通,扬州,镇江,泰州,杭州,宁波,嘉兴,湖州,绍兴,金华,台州,义乌</city>
  </location>
  <location>
    <deal_id>252723</deal_id>
    <shop_id></shop_id>
    <address>四明中路1016号</address>
    <latitude>29.827399</latitude>
    <longitude>121.544259</longitude>
    <campus>华家池</campus>
    <city>上海,无锡,南通,扬州,镇江,泰州,杭州,宁波,嘉兴,湖州,绍兴,金华,台州,义乌</city>
  </location>
  <location>
    <deal_id>252723</deal_id>
    <shop_id></shop_id>
    <address>姚隘路792号</address>
    <latitude>29.866276</latitude>
    <longitude>121.593168</longitude>
    <campus>华家池</campus>
    <city>上海,无锡,南通,扬州,镇江,泰州,杭州,宁波,嘉兴,湖州,绍兴,金华,台州,义乌</city>
  </location>
  <location>
    <deal_id>252723</deal_id>
    <shop_id></shop_id>
    <address>商业街201-217号</address>
    <latitude>31.689819</latitude>
    <longitude>120.215512</longitude>
    <campus>紫金港</campus>
    <city>上海,无锡,南通,扬州,镇江,泰州,杭州,宁波,嘉兴,湖州,绍兴,金华,台州,义乌</city>
  </location>
  <location>
    <deal_id>252723</deal_id>
    <shop_id></shop_id>
    <address>奉化市南山路66号-3 （南山路和公园路交叉口往北30米）</address>
    <latitude>29.656865</latitude>
    <longitude>121.411277</longitude>
    <campus>华家池</campus>
    <city>上海,无锡,南通,扬州,镇江,泰州,杭州,宁波,嘉兴,湖州,绍兴,金华,台州,义乌</city>
  </location>
  <location>
    <deal_id>252723</deal_id>
    <shop_id></shop_id>
    <address>临安市钱王街万华广场四楼C-006</address>
    <latitude>30.226545</latitude>
    <longitude>119.716035</longitude>
    <campus>紫金港</campus>
    <city>上海,无锡,南通,扬州,镇江,泰州,杭州,宁波,嘉兴,湖州,绍兴,金华,台州,义乌</city>
  </location>
  <location>
    <deal_id>252723</deal_id>
    <shop_id></shop_id>
    <address>外环西路153号（金山宾馆旁）</address>
    <latitude>32.010401</latitude>
    <longitude>120.838587</longitude>
    <campus>华家池</campus>
    <city>上海,无锡,南通,扬州,镇江,泰州,杭州,宁波,嘉兴,湖州,绍兴,金华,台州,义乌</city>
  </location>
  <location>
    <deal_id>252723</deal_id>
    <shop_id></shop_id>
    <address>解放中路71号（金三角花园斜对面）</address>
    <latitude>31.89459</latitude>
    <longitude>121.190465</longitude>
    <campus>华家池</campus>
    <city>上海,无锡,南通,扬州,镇江,泰州,杭州,宁波,嘉兴,湖州,绍兴,金华,台州,义乌</city>
  </location>
  <location>
    <deal_id>252723</deal_id>
    <shop_id></shop_id>
    <address>益寿路658号（三洋摩托车城总部斜对面）</address>
    <latitude>32.398147</latitude>
    <longitude>120.547889</longitude>
    <campus>紫金港</campus>
    <city>上海,无锡,南通,扬州,镇江,泰州,杭州,宁波,嘉兴,湖州,绍兴,金华,台州,义乌</city>
  </location>
  <location>
    <deal_id>252723</deal_id>
    <shop_id></shop_id>
    <address>扬子江中路487号-10（扬州大学附近）</address>
    <latitude>32.378774</latitude>
    <longitude>119.41739</longitude>
    <campus>紫金港</campus>
    <city>上海,无锡,南通,扬州,镇江,泰州,杭州,宁波,嘉兴,湖州,绍兴,金华,台州,义乌</city>
  </location>
  <location>
    <deal_id>252723</deal_id>
    <shop_id></shop_id>
    <address>学府路56号（欧尚超市对面）</address>
    <latitude>32.192572</latitude>
    <longitude>119.481718</longitude>
    <campus>紫金港</campus>
    <city>上海,无锡,南通,扬州,镇江,泰州,杭州,宁波,嘉兴,湖州,绍兴,金华,台州,义乌</city>
  </location>
  <location>
    <deal_id>252723</deal_id>
    <shop_id></shop_id>
    <address>江平路206号（金都公交车站台对面）</address>
    <latitude>32.013723</latitude>
    <longitude>120.267023</longitude>
    <campus>紫金港</campus>
    <city>上海,无锡,南通,扬州,镇江,泰州,杭州,宁波,嘉兴,湖州,绍兴,金华,台州,义乌</city>
  </location>
  <location>
    <deal_id>252723</deal_id>
    <shop_id></shop_id>
    <address>海昌路142号 （海昌路与水月亭路交叉口海宁房地产开放旁边）</address>
    <latitude>30.524589</latitude>
    <longitude>120.68717</longitude>
    <campus>华家池</campus>
    <city>上海,无锡,南通,扬州,镇江,泰州,杭州,宁波,嘉兴,湖州,绍兴,金华,台州,义乌</city>
  </location>
  <location>
    <deal_id>252723</deal_id>
    <shop_id></shop_id>
    <address>新华路702-712号（广电大厦向前200米，宾利大酒店旁边）</address>
    <latitude>30.866207</latitude>
    <longitude>120.123202</longitude>
    <campus>紫金港</campus>
    <city>上海,无锡,南通,扬州,镇江,泰州,杭州,宁波,嘉兴,湖州,绍兴,金华,台州,义乌</city>
  </location>
  <location>
    <deal_id>252723</deal_id>
    <shop_id></shop_id>
    <address>武康镇千秋街余英坊71栋17-24号德清二中对面</address>
    <latitude>30.541048</latitude>
    <longitude>119.973177</longitude>
    <campus>紫金港</campus>
    <city>上海,无锡,南通,扬州,镇江,泰州,杭州,宁波,嘉兴,湖州,绍兴,金华,台州,义乌</city>
  </location>
  <location>
    <deal_id>252723</deal_id>
    <shop_id></shop_id>
    <address>雉城镇海兴路161号 （烟草公司对面，海兴桥旁边）</address>
    <latitude>30.995108</latitude>
    <longitude>119.916015</longitude>
    <campus>紫金港</campus>
    <city>上海,无锡,南通,扬州,镇江,泰州,杭州,宁波,嘉兴,湖州,绍兴,金华,台州,义乌</city>
  </location>
  <location>
    <deal_id>252723</deal_id>
    <shop_id></shop_id>
    <address>云鸿西路139号 （神仙居宾馆对面）</address>
    <latitude>30.623643</latitude>
    <longitude>119.681857</longitude>
    <campus>紫金港</campus>
    <city>上海,无锡,南通,扬州,镇江,泰州,杭州,宁波,嘉兴,湖州,绍兴,金华,台州,义乌</city>
  </location>
  <location>
    <deal_id>252723</deal_id>
    <shop_id></shop_id>
    <address>南街与公园路交汇处东南角爱山广场17号楼3层</address>
    <latitude>30.867519</latitude>
    <longitude>120.100051</longitude>
    <campus>紫金港</campus>
    <city>上海,无锡,南通,扬州,镇江,泰州,杭州,宁波,嘉兴,湖州,绍兴,金华,台州,义乌</city>
  </location>
  <location>
    <deal_id>252723</deal_id>
    <shop_id></shop_id>
    <address>胜利东路355号湖滨商业街1幢324号（欧尚超市对面）</address>
    <latitude>30.004202</latitude>
    <longitude>120.597665</longitude>
    <campus>华家池</campus>
    <city>上海,无锡,南通,扬州,镇江,泰州,杭州,宁波,嘉兴,湖州,绍兴,金华,台州,义乌</city>
  </location>
  <location>
    <deal_id>252723</deal_id>
    <shop_id></shop_id>
    <address>高湖路41号卫生局旁边</address>
    <latitude>29.714303</latitude>
    <longitude>120.250205</longitude>
    <campus>之江</campus>
    <city>上海,无锡,南通,扬州,镇江,泰州,杭州,宁波,嘉兴,湖州,绍兴,金华,台州,义乌</city>
  </location>
  <location>
    <deal_id>252723</deal_id>
    <shop_id></shop_id>
    <address>剡成路158号（剡城路与嵊州大道交叉口农村信用社旁）</address>
    <latitude>29.59696</latitude>
    <longitude>120.830416</longitude>
    <campus>之江</campus>
    <city>上海,无锡,南通,扬州,镇江,泰州,杭州,宁波,嘉兴,湖州,绍兴,金华,台州,义乌</city>
  </location>
  <location>
    <deal_id>252723</deal_id>
    <shop_id></shop_id>
    <address>火车站前五一路679号（满堂红商务宾馆旁边）</address>
    <latitude>29.109055</latitude>
    <longitude>119.639067</longitude>
    <campus>之江</campus>
    <city>上海,无锡,南通,扬州,镇江,泰州,杭州,宁波,嘉兴,湖州,绍兴,金华,台州,义乌</city>
  </location>
  <location>
    <deal_id>252723</deal_id>
    <shop_id></shop_id>
    <address>熟溪北路124号（武义县紫金五盛商业中心五盛街256号）</address>
    <latitude>28.890515</latitude>
    <longitude>119.814639</longitude>
    <campus>之江</campus>
    <city>上海,无锡,南通,扬州,镇江,泰州,杭州,宁波,嘉兴,湖州,绍兴,金华,台州,义乌</city>
  </location>
  <location>
    <deal_id>252723</deal_id>
    <shop_id></shop_id>
    <address>城东路622号（香格里拉花园小区对面）</address>
    <latitude>28.900863</latitude>
    <longitude>120.049962</longitude>
    <campus>之江</campus>
    <city>上海,无锡,南通,扬州,镇江,泰州,杭州,宁波,嘉兴,湖州,绍兴,金华,台州,义乌</city>
  </location>
  <location>
    <deal_id>252723</deal_id>
    <shop_id></shop_id>
    <address>东阳市人民路242号（东阳日报旁边）</address>
    <latitude>29.27824</latitude>
    <longitude>120.240392</longitude>
    <campus>之江</campus>
    <city>上海,无锡,南通,扬州,镇江,泰州,杭州,宁波,嘉兴,湖州,绍兴,金华,台州,义乌</city>
  </location>
  <location>
    <deal_id>252723</deal_id>
    <shop_id></shop_id>
    <address>龙游县龙翔大道吟江宾馆297号</address>
    <latitude>29.036558</latitude>
    <longitude>119.169494</longitude>
    <campus>之江</campus>
    <city>上海,无锡,南通,扬州,镇江,泰州,杭州,宁波,嘉兴,湖州,绍兴,金华,台州,义乌</city>
  </location>
  <location>
    <deal_id>252723</deal_id>
    <shop_id></shop_id>
    <address>万昌中路1269号</address>
    <latitude>28.379223</latitude>
    <longitude>121.378879</longitude>
    <campus>之江</campus>
    <city>上海,无锡,南通,扬州,镇江,泰州,杭州,宁波,嘉兴,湖州,绍兴,金华,台州,义乌</city>
  </location>
  <location>
    <deal_id>252723</deal_id>
    <shop_id></shop_id>
    <address>义东路59号汉宫宾馆一楼</address>
    <latitude>29.312899</latitude>
    <longitude>120.080379</longitude>
    <campus>之江</campus>
    <city>上海,无锡,南通,扬州,镇江,泰州,杭州,宁波,嘉兴,湖州,绍兴,金华,台州,义乌</city>
  </location>
  <location>
    <deal_id>252723</deal_id>
    <shop_id></shop_id>
    <address>稠州北路560号东都宾馆2楼</address>
    <latitude>29.319816</latitude>
    <longitude>120.095264</longitude>
    <campus>之江</campus>
    <city>上海,无锡,南通,扬州,镇江,泰州,杭州,宁波,嘉兴,湖州,绍兴,金华,台州,义乌</city>
  </location>
  <location>
    <deal_id>365895</deal_id>
    <shop_id></shop_id>
    <address>余杭区临平南苑街道藕花洲大街303号沃尔玛4楼</address>
    <latitude>30.415581</latitude>
    <longitude>120.29847</longitude>
    <campus>华家池</campus>
    <city>杭州</city>
  </location>
  <location>
    <deal_id>142489</deal_id>
    <shop_id></shop_id>
    <address>城厢街道湖头陈村（滨康路55号之江纺织大楼)</address>
    <latitude>30.182066</latitude>
    <longitude>120.228708</longitude>
    <campus>华家池</campus>
    <city>杭州</city>
  </location>
  <location>
    <deal_id>304735</deal_id>
    <shop_id></shop_id>
    <address>凤起路285号</address>
    <latitude>30.264475</latitude>
    <longitude>120.173444</longitude>
    <campus>华家池</campus>
    <city>杭州</city>
  </location>
  <location>
    <deal_id>967506</deal_id>
    <shop_id></shop_id>
    <address>江城路863号（锦波大酒店旁）</address>
    <latitude>30.241673</latitude>
    <longitude>120.179904</longitude>
    <campus>华家池</campus>
    <city>杭州</city>
  </location>
  <location>
    <deal_id>438009</deal_id>
    <shop_id></shop_id>
    <address>上城区平海路115号</address>
    <latitude>30.253828</latitude>
    <longitude>120.163354</longitude>
    <campus>华家池</campus>
    <city>杭州</city>
  </location>
  <location>
    <deal_id>107361</deal_id>
    <shop_id></shop_id>
    <address>东坡路10号东坡大世界4楼</address>
    <latitude>30.253238</latitude>
    <longitude>120.163104</longitude>
    <campus>华家池</campus>
    <city>杭州</city>
  </location>
  <location>
    <deal_id>393498</deal_id>
    <shop_id></shop_id>
    <address>上塘路360号（浙江工业大学后门）</address>
    <latitude>30.294542</latitude>
    <longitude>120.160942</longitude>
    <campus>西溪</campus>
    <city>杭州</city>
  </location>
  <location>
    <deal_id>393498</deal_id>
    <shop_id></shop_id>
    <address>湖洲街16-1号</address>
    <latitude>30.321802</latitude>
    <longitude>120.160417</longitude>
    <campus>西溪</campus>
    <city>杭州</city>
  </location>
  <location>
    <deal_id>886865</deal_id>
    <shop_id></shop_id>
    <address>邮电路96号（近湖滨路）</address>
    <latitude>30.252</latitude>
    <longitude>120.163</longitude>
    <campus>华家池</campus>
    <city>杭州</city>
  </location>
  <location>
    <deal_id>886865</deal_id>
    <shop_id></shop_id>
    <address>庆春东路18号</address>
    <latitude>30.257798</latitude>
    <longitude>120.199045</longitude>
    <campus>华家池</campus>
    <city>杭州</city>
  </location>
  <location>
    <deal_id>886865</deal_id>
    <shop_id></shop_id>
    <address>江城路673号</address>
    <latitude>30.236844</latitude>
    <longitude>120.177029</longitude>
    <campus>华家池</campus>
    <city>杭州</city>
  </location>
  <location>
    <deal_id>886865</deal_id>
    <shop_id></shop_id>
    <address>体育场路446号</address>
    <latitude>30.271035</latitude>
    <longitude>120.155536</longitude>
    <campus>西溪</campus>
    <city>杭州</city>
  </location>
  <location>
    <deal_id>886865</deal_id>
    <shop_id></shop_id>
    <address>中山中路322号</address>
    <latitude>30.251144</latitude>
    <longitude>120.170427</longitude>
    <campus>华家池</campus>
    <city>杭州</city>
  </location>
  <location>
    <deal_id>886865</deal_id>
    <shop_id></shop_id>
    <address>湖墅南路431号</address>
    <latitude>30.291673</latitude>
    <longitude>120.148075</longitude>
    <campus>西溪</campus>
    <city>杭州</city>
  </location>
  <location>
    <deal_id>886865</deal_id>
    <shop_id></shop_id>
    <address>香积寺路246号</address>
    <latitude>30.303251</latitude>
    <longitude>120.15758</longitude>
    <campus>西溪</campus>
    <city>杭州</city>
  </location>
  <location>
    <deal_id>886865</deal_id>
    <shop_id></shop_id>
    <address>朝晖七区河东路196号</address>
    <latitude>30.288104</latitude>
    <longitude>120.160199</longitude>
    <campus>西溪</campus>
    <city>杭州</city>
  </location>
  <location>
    <deal_id>886865</deal_id>
    <shop_id></shop_id>
    <address>南山路新民村3号</address>
    <latitude>30.235335</latitude>
    <longitude>120.15672</longitude>
    <campus>玉泉</campus>
    <city>杭州</city>
  </location>
  <location>
    <deal_id>886865</deal_id>
    <shop_id></shop_id>
    <address>文二西路338号</address>
    <latitude>30.281807</latitude>
    <longitude>120.099892</longitude>
    <campus>玉泉</campus>
    <city>杭州</city>
  </location>
  <location>
    <deal_id>854312</deal_id>
    <shop_id></shop_id>
    <address>解放路251号解百商场B座2层（近湖滨路）</address>
    <latitude>30.249613</latitude>
    <longitude>120.164451</longitude>
    <campus>华家池</campus>
    <city>杭州</city>
  </location>
  <location>
    <deal_id>854312</deal_id>
    <shop_id></shop_id>
    <address>临安钱王大街855号万华广场4楼</address>
    <latitude>30.205021</latitude>
    <longitude>119.685189</longitude>
    <campus>紫金港</campus>
    <city>杭州</city>
  </location>
  <location>
    <deal_id>854312</deal_id>
    <shop_id></shop_id>
    <address>延安路98号西湖银泰2楼</address>
    <latitude>30.244028</latitude>
    <longitude>120.164898</longitude>
    <campus>华家池</campus>
    <city>杭州</city>
  </location>
  <location>
    <deal_id>854312</deal_id>
    <shop_id></shop_id>
    <address>古墩路588号印象城1楼1010B</address>
    <latitude>30.293609</latitude>
    <longitude>120.099098</longitude>
    <campus>紫金港</campus>
    <city>杭州</city>
  </location>
  <location>
    <deal_id>854312</deal_id>
    <shop_id></shop_id>
    <address>景昙路18-26号6楼</address>
    <latitude>30.259741</latitude>
    <longitude>120.205162</longitude>
    <campus>华家池</campus>
    <city>杭州</city>
  </location>
  <location>
    <deal_id>854312</deal_id>
    <shop_id></shop_id>
    <address>迎春南路666号利时百货4楼</address>
    <latitude>29.799171</latitude>
    <longitude>119.686102</longitude>
    <campus>之江</campus>
    <city>杭州</city>
  </location>
  <location>
    <deal_id>854312</deal_id>
    <shop_id></shop_id>
    <address>东新路155号和平广场世纪联华1F</address>
    <latitude>30.290352</latitude>
    <longitude>120.175425</longitude>
    <campus>华家池</campus>
    <city>杭州</city>
  </location>
  <location>
    <deal_id>854312</deal_id>
    <shop_id></shop_id>
    <address>中山北路西湖文化广场18号</address>
    <latitude>30.27662</latitude>
    <longitude>120.163433</longitude>
    <campus>华家池</campus>
    <city>杭州</city>
  </location>
  <location>
    <deal_id>927747</deal_id>
    <shop_id></shop_id>
    <address>邮电路96号（近湖滨路）</address>
    <latitude>30.252</latitude>
    <longitude>120.163</longitude>
    <campus>华家池</campus>
    <city>杭州</city>
  </location>
  <location>
    <deal_id>927747</deal_id>
    <shop_id></shop_id>
    <address>庆春东路18号</address>
    <latitude>30.257798</latitude>
    <longitude>120.199045</longitude>
    <campus>华家池</campus>
    <city>杭州</city>
  </location>
  <location>
    <deal_id>927747</deal_id>
    <shop_id></shop_id>
    <address>江城路673号</address>
    <latitude>30.236844</latitude>
    <longitude>120.177029</longitude>
    <campus>华家池</campus>
    <city>杭州</city>
  </location>
  <location>
    <deal_id>927747</deal_id>
    <shop_id></shop_id>
    <address>体育场路446号</address>
    <latitude>30.271035</latitude>
    <longitude>120.155536</longitude>
    <campus>西溪</campus>
    <city>杭州</city>
  </location>
  <location>
    <deal_id>927747</deal_id>
    <shop_id></shop_id>
    <address>中山中路322号</address>
    <latitude>30.251144</latitude>
    <longitude>120.170427</longitude>
    <campus>华家池</campus>
    <city>杭州</city>
  </location>
  <location>
    <deal_id>927747</deal_id>
    <shop_id></shop_id>
    <address>湖墅南路431号</address>
    <latitude>30.291673</latitude>
    <longitude>120.148075</longitude>
    <campus>西溪</campus>
    <city>杭州</city>
  </location>
  <location>
    <deal_id>927747</deal_id>
    <shop_id></shop_id>
    <address>香积寺路246号</address>
    <latitude>30.303251</latitude>
    <longitude>120.15758</longitude>
    <campus>西溪</campus>
    <city>杭州</city>
  </location>
  <location>
    <deal_id>927747</deal_id>
    <shop_id></shop_id>
    <address>朝晖七区河东路196号</address>
    <latitude>30.288104</latitude>
    <longitude>120.160199</longitude>
    <campus>西溪</campus>
    <city>杭州</city>
  </location>
  <location>
    <deal_id>927747</deal_id>
    <shop_id></shop_id>
    <address>南山路新民村3号</address>
    <latitude>30.235335</latitude>
    <longitude>120.15672</longitude>
    <campus>玉泉</campus>
    <city>杭州</city>
  </location>
  <location>
    <deal_id>927747</deal_id>
    <shop_id></shop_id>
    <address>文二西路338号</address>
    <latitude>30.281807</latitude>
    <longitude>120.099892</longitude>
    <campus>玉泉</campus>
    <city>杭州</city>
  </location>
  <location>
    <deal_id>792667</deal_id>
    <shop_id></shop_id>
    <address>市心北路288号</address>
    <latitude>30.208995</latitude>
    <longitude>120.26978</longitude>
    <campus>华家池</campus>
    <city>杭州</city>
  </location>
  <location>
    <deal_id>792667</deal_id>
    <shop_id></shop_id>
    <address>市心南路城河街35号</address>
    <latitude>30.163169</latitude>
    <longitude>120.267194</longitude>
    <campus>华家池</campus>
    <city>杭州</city>
  </location>
  <location>
    <deal_id>792667</deal_id>
    <shop_id></shop_id>
    <address>通惠中路669号</address>
    <latitude>30.1791</latitude>
    <longitude>120.285221</longitude>
    <campus>华家池</campus>
    <city>杭州</city>
  </location>
  <location>
    <deal_id>792667</deal_id>
    <shop_id></shop_id>
    <address>萧绍路981号</address>
    <latitude>30.164873</latitude>
    <longitude>120.277564</longitude>
    <campus>华家池</campus>
    <city>杭州</city>
  </location>
  <location>
    <deal_id>792667</deal_id>
    <shop_id></shop_id>
    <address>市心南路128号</address>
    <latitude>30.161664</latitude>
    <longitude>120.266663</longitude>
    <campus>华家池</campus>
    <city>杭州</city>
  </location>
  <location>
    <deal_id>792667</deal_id>
    <shop_id></shop_id>
    <address>金城路451号太古广场</address>
    <latitude>30.182118</latitude>
    <longitude>120.257684</longitude>
    <campus>华家池</campus>
    <city>杭州</city>
  </location>
  <location>
    <deal_id>505827</deal_id>
    <shop_id></shop_id>
    <address>天城路176号（文辉大桥东，神州白云大厦2楼）</address>
    <latitude>30.284213</latitude>
    <longitude>120.189521</longitude>
    <campus>华家池</campus>
    <city>杭州</city>
  </location>
  <location>
    <deal_id>208784</deal_id>
    <shop_id></shop_id>
    <address>庆春路66-3号</address>
    <latitude>30.25829</latitude>
    <longitude>120.177844</longitude>
    <campus>华家池</campus>
    <city>杭州</city>
  </location>
  <location>
    <deal_id>389165</deal_id>
    <shop_id></shop_id>
    <address>下城区环城北路280号</address>
    <latitude>30.27346</latitude>
    <longitude>120.158768</longitude>
    <campus>西溪</campus>
    <city>杭州</city>
  </location>
  <location>
    <deal_id>212865</deal_id>
    <shop_id></shop_id>
    <address>东坡路6号三楼（近邮电路）</address>
    <latitude>30.252216</latitude>
    <longitude>120.163165</longitude>
    <campus>华家池</campus>
    <city>杭州</city>
  </location>
  <location>
    <deal_id>452826</deal_id>
    <shop_id></shop_id>
    <address>拱秀路217号</address>
    <latitude>30.155984</latitude>
    <longitude>120.274783</longitude>
    <campus>华家池</campus>
    <city>杭州</city>
  </location>
  <location>
    <deal_id>452826</deal_id>
    <shop_id></shop_id>
    <address>萧山区工人路922号</address>
    <latitude>30.180092</latitude>
    <longitude>120.26071</longitude>
    <campus>华家池</campus>
    <city>杭州</city>
  </location>
  <location>
    <deal_id>526280</deal_id>
    <shop_id></shop_id>
    <address>江干区清江路169号（九天国际对面）</address>
    <latitude>30.243921</latitude>
    <longitude>120.195537</longitude>
    <campus>华家池</campus>
    <city>杭州</city>
  </location>
  <location>
    <deal_id>526280</deal_id>
    <shop_id></shop_id>
    <address>下沙2号大街22号（华元十六街区142号）</address>
    <latitude>30.309756</latitude>
    <longitude>120.348921</longitude>
    <campus>华家池</campus>
    <city>杭州</city>
  </location>
  <location>
    <deal_id>526280</deal_id>
    <shop_id></shop_id>
    <address>文泽路99号（福雷德广场2楼）</address>
    <latitude>30.317515</latitude>
    <longitude>120.346993</longitude>
    <campus>华家池</campus>
    <city>杭州</city>
  </location>
  <location>
    <deal_id>526280</deal_id>
    <shop_id></shop_id>
    <address>文三路294号（火炬大厦对面）</address>
    <latitude>30.277318</latitude>
    <longitude>120.134166</longitude>
    <campus>西溪</campus>
    <city>杭州</city>
  </location>
  <location>
    <deal_id>526280</deal_id>
    <shop_id></shop_id>
    <address>留下镇小和山高教园区石马新村147号</address>
    <latitude>30.242635</latitude>
    <longitude>120.058617</longitude>
    <campus>玉泉</campus>
    <city>杭州</city>
  </location>
  <location>
    <deal_id>526280</deal_id>
    <shop_id></shop_id>
    <address>余杭区九曲营路165号</address>
    <latitude>30.425274</latitude>
    <longitude>120.308117</longitude>
    <campus>华家池</campus>
    <city>杭州</city>
  </location>
  <location>
    <deal_id>526280</deal_id>
    <shop_id></shop_id>
    <address>余杭区广和街8-43号</address>
    <latitude>30.414405</latitude>
    <longitude>120.30452</longitude>
    <campus>华家池</campus>
    <city>杭州</city>
  </location>
  <location>
    <deal_id>217861</deal_id>
    <shop_id></shop_id>
    <address>莫干山路491号（近石灰桥站）</address>
    <latitude>30.286177</latitude>
    <longitude>120.146043</longitude>
    <campus>西溪</campus>
    <city>杭州</city>
  </location>
  <location>
    <deal_id>110471</deal_id>
    <shop_id></shop_id>
    <address>解放路142号（近中河路）</address>
    <latitude>30.250875</latitude>
    <longitude>120.171335</longitude>
    <campus>华家池</campus>
    <city>杭州</city>
  </location>
  <location>
    <deal_id>418480</deal_id>
    <shop_id></shop_id>
    <address>东新路728号（东新路重机巷100号3、4楼）</address>
    <latitude>30.319687</latitude>
    <longitude>120.173351</longitude>
    <campus>华家池</campus>
    <city>杭州</city>
  </location>
  <location>
    <deal_id>251701</deal_id>
    <shop_id></shop_id>
    <address>湖墅南路500号卖鱼桥边（信义坊广场对面）</address>
    <latitude>30.294963</latitude>
    <longitude>120.147118</longitude>
    <campus>西溪</campus>
    <city>杭州</city>
  </location>
  <location>
    <deal_id>855344</deal_id>
    <shop_id></shop_id>
    <address>体育场路370号瑞豪中心酒店22楼</address>
    <latitude>30.270772</latitude>
    <longitude>120.161292</longitude>
    <campus>华家池</campus>
    <city>杭州</city>
  </location>
  <location>
    <deal_id>306253</deal_id>
    <shop_id></shop_id>
    <address>申花路759号剑桥公社E座</address>
    <latitude>30.306002</latitude>
    <longitude>120.095002</longitude>
    <campus>紫金港</campus>
    <city>杭州</city>
  </location>
  <location>
    <deal_id>178477</deal_id>
    <shop_id></shop_id>
    <address>湖墅南路412号（文一路与湖墅南路交叉口）银都大厦3楼</address>
    <latitude>30.29052</latitude>
    <longitude>120.149627</longitude>
    <campus>西溪</campus>
    <city>杭州</city>
  </location>
  <location>
    <deal_id>178477</deal_id>
    <shop_id></shop_id>
    <address>文三西路638号（古墩路紫金花路间）</address>
    <latitude>30.275759</latitude>
    <longitude>120.095424</longitude>
    <campus>玉泉</campus>
    <city>杭州</city>
  </location>
  <location>
    <deal_id>363731</deal_id>
    <shop_id></shop_id>
    <address>万塘路黄龙时代广场16-2</address>
    <latitude>30.272742</latitude>
    <longitude>120.125092</longitude>
    <campus>玉泉</campus>
    <city>杭州</city>
  </location>
  <location>
    <deal_id>175892</deal_id>
    <shop_id></shop_id>
    <address>浣纱路39号</address>
    <latitude>30.249</latitude>
    <longitude>120.166</longitude>
    <campus>华家池</campus>
    <city>杭州</city>
  </location>
  <location>
    <deal_id>684592</deal_id>
    <shop_id></shop_id>
    <address>万塘路262号（华星路与万塘路交叉口）</address>
    <latitude>30.279784</latitude>
    <longitude>120.123989</longitude>
    <campus>西溪</campus>
    <city>杭州</city>
  </location>
  <location>
    <deal_id>684592</deal_id>
    <shop_id></shop_id>
    <address>解放路251号解百新世纪6F</address>
    <latitude>30.250133</latitude>
    <longitude>120.16565</longitude>
    <campus>华家池</campus>
    <city>杭州</city>
  </location>
  <location>
    <deal_id>966859</deal_id>
    <shop_id></shop_id>
    <address>拱秀路1066号（蓝天宾馆北大门）</address>
    <latitude>30.155875</latitude>
    <longitude>120.281903</longitude>
    <campus>华家池</campus>
    <city>杭州</city>
  </location>
  <location>
    <deal_id>671127</deal_id>
    <shop_id></shop_id>
    <address>古墩路588号印象城4楼（沃尔玛入口处）</address>
    <latitude>30.295558</latitude>
    <longitude>120.098319</longitude>
    <campus>紫金港</campus>
    <city>杭州</city>
  </location>
  <location>
    <deal_id>411633</deal_id>
    <shop_id></shop_id>
    <address>萧山区萧绍路1128号</address>
    <latitude>30.165429</latitude>
    <longitude>120.274949</longitude>
    <campus>华家池</campus>
    <city>杭州</city>
  </location>
  <location>
    <deal_id>337168</deal_id>
    <shop_id></shop_id>
    <address>秋涛北路320号</address>
    <latitude>30.289552</latitude>
    <longitude>120.198828</longitude>
    <campus>华家池</campus>
    <city>杭州</city>
  </location>
  <location>
    <deal_id>556274</deal_id>
    <shop_id></shop_id>
    <address>萧山区金城路333号加州阳光广场4楼C区</address>
    <latitude>30.181947</latitude>
    <longitude>120.251871</longitude>
    <campus>华家池</campus>
    <city>杭州</city>
  </location>
  <location>
    <deal_id>556274</deal_id>
    <shop_id></shop_id>
    <address>文一路84号</address>
    <latitude>30.288838</latitude>
    <longitude>120.139499</longitude>
    <campus>西溪</campus>
    <city>杭州</city>
  </location>
  <location>
    <deal_id>556274</deal_id>
    <shop_id></shop_id>
    <address>瓜沥镇东灵路225号</address>
    <latitude>30.17768</latitude>
    <longitude>120.458122</longitude>
    <campus>华家池</campus>
    <city>杭州</city>
  </location>
  <location>
    <deal_id>560601</deal_id>
    <shop_id></shop_id>
    <address>保俶路148号（如家酒店楼下）</address>
    <latitude>30.266398</latitude>
    <longitude>120.148007</longitude>
    <campus>西溪</campus>
    <city>杭州</city>
  </location>
  <location>
    <deal_id>195105</deal_id>
    <shop_id></shop_id>
    <address>凤起路285号</address>
    <latitude>30.264475</latitude>
    <longitude>120.173444</longitude>
    <campus>华家池</campus>
    <city>杭州</city>
  </location>
  <location>
    <deal_id>864401</deal_id>
    <shop_id></shop_id>
    <address>萧山区金城路333号加州阳光广场4楼C区</address>
    <latitude>30.181947</latitude>
    <longitude>120.251871</longitude>
    <campus>华家池</campus>
    <city>杭州</city>
  </location>
  <location>
    <deal_id>864401</deal_id>
    <shop_id></shop_id>
    <address>文一路84号</address>
    <latitude>30.288838</latitude>
    <longitude>120.139499</longitude>
    <campus>西溪</campus>
    <city>杭州</city>
  </location>
  <location>
    <deal_id>864401</deal_id>
    <shop_id></shop_id>
    <address>瓜沥镇东灵路225号</address>
    <latitude>30.17768</latitude>
    <longitude>120.458122</longitude>
    <campus>华家池</campus>
    <city>杭州</city>
  </location>
  <location>
    <deal_id>863190</deal_id>
    <shop_id></shop_id>
    <address>西湖区古墩路541号</address>
    <latitude>30.290117</latitude>
    <longitude>120.097517</longitude>
    <campus>紫金港</campus>
    <city>杭州</city>
  </location>
  <location>
    <deal_id>863190</deal_id>
    <shop_id></shop_id>
    <address>余杭区临平东湖南路158号</address>
    <latitude>30.412034</latitude>
    <longitude>120.309796</longitude>
    <campus>华家池</campus>
    <city>杭州</city>
  </location>
  <location>
    <deal_id>863190</deal_id>
    <shop_id></shop_id>
    <address>瓶窑镇大观山农贸综合市场内</address>
    <latitude>30.389625</latitude>
    <longitude>119.973669</longitude>
    <campus>紫金港</campus>
    <city>杭州</city>
  </location>
  <location>
    <deal_id>863190</deal_id>
    <shop_id></shop_id>
    <address>良渚镇金家渡路200号</address>
    <latitude>30.337966</latitude>
    <longitude>120.091064</longitude>
    <campus>紫金港</campus>
    <city>杭州</city>
  </location>
  <location>
    <deal_id>496370</deal_id>
    <shop_id></shop_id>
    <address>径山镇双溪</address>
    <latitude>30.40196</latitude>
    <longitude>119.83455</longitude>
    <campus>紫金港</campus>
    <city>杭州</city>
  </location>
  <location>
    <deal_id>937810</deal_id>
    <shop_id></shop_id>
    <address>学院路122号旁边海关路内</address>
    <latitude>30.279783</latitude>
    <longitude>120.131389</longitude>
    <campus>西溪</campus>
    <city>杭州</city>
  </location>
  <location>
    <deal_id>698047</deal_id>
    <shop_id></shop_id>
    <address>江干区下沙高教园区学源街中国计量学院教学区正门对面</address>
    <latitude>30.320839</latitude>
    <longitude>120.357519</longitude>
    <campus>华家池</campus>
    <city>杭州</city>
  </location>
  <location>
    <deal_id>698047</deal_id>
    <shop_id></shop_id>
    <address>文三路326号</address>
    <latitude>30.277162</latitude>
    <longitude>120.13309</longitude>
    <campus>西溪</campus>
    <city>杭州</city>
  </location>
  <location>
    <deal_id>698047</deal_id>
    <shop_id></shop_id>
    <address>文二路420号</address>
    <latitude>30.282542</latitude>
    <longitude>120.121896</longitude>
    <campus>西溪</campus>
    <city>杭州</city>
  </location>
  <location>
    <deal_id>698047</deal_id>
    <shop_id></shop_id>
    <address>西环路44号</address>
    <latitude>30.184896</latitude>
    <longitude>120.147688</longitude>
    <campus>之江</campus>
    <city>杭州</city>
  </location>
  <location>
    <deal_id>698047</deal_id>
    <shop_id></shop_id>
    <address>文澜路（B1终点站对面）</address>
    <latitude>30.319536</latitude>
    <longitude>120.389247</longitude>
    <campus>华家池</campus>
    <city>杭州</city>
  </location>
  <location>
    <deal_id>698047</deal_id>
    <shop_id></shop_id>
    <address>乔司镇夜市边</address>
    <latitude>30.352255</latitude>
    <longitude>120.292478</longitude>
    <campus>华家池</campus>
    <city>杭州</city>
  </location>
  <location>
    <deal_id>698047</deal_id>
    <shop_id></shop_id>
    <address>临平保健路77号</address>
    <latitude>30.423967</latitude>
    <longitude>120.299053</longitude>
    <campus>华家池</campus>
    <city>杭州</city>
  </location>
  <location>
    <deal_id>698047</deal_id>
    <shop_id></shop_id>
    <address>下沙理工学院生活二区学林街</address>
    <latitude>30.315433</latitude>
    <longitude>120.354858</longitude>
    <campus>华家池</campus>
    <city>杭州</city>
  </location>
  <location>
    <deal_id>698047</deal_id>
    <shop_id></shop_id>
    <address>拱墅区舟山东路66号</address>
    <latitude>30.318541</latitude>
    <longitude>120.154941</longitude>
    <campus>西溪</campus>
    <city>杭州</city>
  </location>
  <location>
    <deal_id>698047</deal_id>
    <shop_id></shop_id>
    <address>华光路48-2号（杭州公安局对面）</address>
    <latitude>30.241451</latitude>
    <longitude>120.166827</longitude>
    <campus>华家池</campus>
    <city>杭州</city>
  </location>
  <location>
    <deal_id>698047</deal_id>
    <shop_id></shop_id>
    <address>富春路249号</address>
    <latitude>30.235498</latitude>
    <longitude>120.202389</longitude>
    <campus>华家池</campus>
    <city>杭州</city>
  </location>
  <location>
    <deal_id>698047</deal_id>
    <shop_id></shop_id>
    <address>杨家墩商业街9-2号</address>
    <latitude>30.168369</latitude>
    <longitude>120.152433</longitude>
    <campus>之江</campus>
    <city>杭州</city>
  </location>
  <location>
    <deal_id>698047</deal_id>
    <shop_id></shop_id>
    <address>学源街887号</address>
    <latitude>30.318555</latitude>
    <longitude>120.346968</longitude>
    <campus>华家池</campus>
    <city>杭州</city>
  </location>
  <location>
    <deal_id>698047</deal_id>
    <shop_id></shop_id>
    <address>德胜巷14号</address>
    <latitude>30.293333</latitude>
    <longitude>120.154066</longitude>
    <campus>西溪</campus>
    <city>杭州</city>
  </location>
  <location>
    <deal_id>534058</deal_id>
    <shop_id></shop_id>
    <address>中山中路150号（南宋御街）</address>
    <latitude>30.243654</latitude>
    <longitude>120.170832</longitude>
    <campus>华家池</campus>
    <city>杭州</city>
  </location>
  <location>
    <deal_id>124438</deal_id>
    <shop_id></shop_id>
    <address>申花路388号西城年华内(近长江路)</address>
    <latitude>30.308219</latitude>
    <longitude>120.101142</longitude>
    <campus>紫金港</campus>
    <city>杭州</city>
  </location>
  <location>
    <deal_id>124438</deal_id>
    <shop_id></shop_id>
    <address>翡翠城翡翠天地商业中心商苑7幢</address>
    <latitude>30.242845</latitude>
    <longitude>120.021657</longitude>
    <campus>紫金港</campus>
    <city>杭州</city>
  </location>
  <location>
    <deal_id>124438</deal_id>
    <shop_id></shop_id>
    <address>凤起东路284号</address>
    <latitude>30.263522</latitude>
    <longitude>120.205068</longitude>
    <campus>华家池</campus>
    <city>杭州</city>
  </location>
  <location>
    <deal_id>124438</deal_id>
    <shop_id></shop_id>
    <address>登云路393号</address>
    <latitude>30.308265</latitude>
    <longitude>120.127019</longitude>
    <campus>西溪</campus>
    <city>杭州</city>
  </location>
  <location>
    <deal_id>124438</deal_id>
    <shop_id></shop_id>
    <address>高教路怡景花城溜霞苑1-6号（余杭区闲林镇）</address>
    <latitude>30.233854</latitude>
    <longitude>120.020885</longitude>
    <campus>紫金港</campus>
    <city>杭州</city>
  </location>
  <location>
    <deal_id>124438</deal_id>
    <shop_id></shop_id>
    <address>文三路133-3号</address>
    <latitude>30.277572</latitude>
    <longitude>120.143311</longitude>
    <campus>西溪</campus>
    <city>杭州</city>
  </location>
  <location>
    <deal_id>124438</deal_id>
    <shop_id></shop_id>
    <address>古墩路381-6号</address>
    <latitude>30.279546</latitude>
    <longitude>120.099758</longitude>
    <campus>玉泉</campus>
    <city>杭州</city>
  </location>
  <location>
    <deal_id>910631</deal_id>
    <shop_id></shop_id>
    <address>武林广场1号杭州大厦A座6层（近体育场路）</address>
    <latitude>30.272143</latitude>
    <longitude>120.161571</longitude>
    <campus>华家池</campus>
    <city>杭州</city>
  </location>
  <location>
    <deal_id>507745</deal_id>
    <shop_id></shop_id>
    <address>益乐路39号蓝海时代大厦1层（华星里街往西）</address>
    <latitude>30.279818</latitude>
    <longitude>120.113665</longitude>
    <campus>玉泉</campus>
    <city>杭州</city>
  </location>
  <location>
    <deal_id>241961</deal_id>
    <shop_id></shop_id>
    <address>湖墅南路500号卖鱼桥边（信义坊广场对面）</address>
    <latitude>30.294963</latitude>
    <longitude>120.147118</longitude>
    <campus>西溪</campus>
    <city>杭州</city>
  </location>
  <location>
    <deal_id>122006</deal_id>
    <shop_id></shop_id>
    <address>古墩路莲花街333号世纪联华4楼</address>
    <latitude>30.27235</latitude>
    <longitude>120.110001</longitude>
    <campus>玉泉</campus>
    <city>杭州</city>
  </location>
  <location>
    <deal_id>584546</deal_id>
    <shop_id></shop_id>
    <address>万塘路黄龙时代广场16-2</address>
    <latitude>30.272742</latitude>
    <longitude>120.125092</longitude>
    <campus>玉泉</campus>
    <city>杭州</city>
  </location>
  <location>
    <deal_id>151621</deal_id>
    <shop_id></shop_id>
    <address>金城路333号加州阳光商场B区2楼（金鸡路口）</address>
    <latitude>30.183</latitude>
    <longitude>120.253</longitude>
    <campus>华家池</campus>
    <city>杭州</city>
  </location>
  <location>
    <deal_id>703029</deal_id>
    <shop_id></shop_id>
    <address>河东路75号</address>
    <latitude>30.283222</latitude>
    <longitude>120.163581</longitude>
    <campus>华家池</campus>
    <city>杭州</city>
  </location>
  <location>
    <deal_id>970545</deal_id>
    <shop_id></shop_id>
    <address>益乐路92号(世纪新城15幢2F-4F)</address>
    <latitude>30.283377</latitude>
    <longitude>120.113934</longitude>
    <campus>玉泉</campus>
    <city>杭州</city>
  </location>
  <location>
    <deal_id>528881</deal_id>
    <shop_id></shop_id>
    <address>湖墅南路407号</address>
    <latitude>30.290033</latitude>
    <longitude>120.149043</longitude>
    <campus>西溪</campus>
    <city>杭州</city>
  </location>
  <location>
    <deal_id>912672</deal_id>
    <shop_id></shop_id>
    <address>望江东路333号4楼</address>
    <latitude>30.228596</latitude>
    <longitude>120.19157</longitude>
    <campus>华家池</campus>
    <city>杭州</city>
  </location>
  <location>
    <deal_id>839003</deal_id>
    <shop_id></shop_id>
    <address>文晖路271号东门4楼</address>
    <latitude>30.280972</latitude>
    <longitude>120.166649</longitude>
    <campus>华家池</campus>
    <city>杭州</city>
  </location>
  <location>
    <deal_id>460691</deal_id>
    <shop_id></shop_id>
    <address>庆春路26号发展大厦一楼（近农业银行） </address>
    <latitude>30.258278</latitude>
    <longitude>120.18515</longitude>
    <campus>华家池</campus>
    <city>杭州</city>
  </location>
  <location>
    <deal_id>518161</deal_id>
    <shop_id></shop_id>
    <address>西湖区文三路121-5号（文三路西溪数码港正对面）</address>
    <latitude>30.277605</latitude>
    <longitude>120.144407</longitude>
    <campus>西溪</campus>
    <city>杭州</city>
  </location>
  <location>
    <deal_id>518161</deal_id>
    <shop_id></shop_id>
    <address>江干区庆春东路11-2号（邵逸夫医院旁）</address>
    <latitude>30.257365</latitude>
    <longitude>120.199808</longitude>
    <campus>华家池</campus>
    <city>杭州</city>
  </location>
  <location>
    <deal_id>518161</deal_id>
    <shop_id></shop_id>
    <address>江干区新塘路194号（景芳五区公交站旁）</address>
    <latitude>30.268173</latitude>
    <longitude>120.20796</longitude>
    <campus>华家池</campus>
    <city>杭州</city>
  </location>
  <location>
    <deal_id>518161</deal_id>
    <shop_id></shop_id>
    <address>江干区秋涛路675号（观音堂公交站旁）</address>
    <latitude>30.246411</latitude>
    <longitude>120.199922</longitude>
    <campus>华家池</campus>
    <city>杭州</city>
  </location>
  <location>
    <deal_id>518161</deal_id>
    <shop_id></shop_id>
    <address>拱墅区东新路1112号（北景园小区竹邻苑旁）</address>
    <latitude>30.339192</latitude>
    <longitude>120.191543</longitude>
    <campus>华家池</campus>
    <city>杭州</city>
  </location>
  <location>
    <deal_id>518161</deal_id>
    <shop_id></shop_id>
    <address>上城区江城路316-3号（赛丽绿城丽园对面）</address>
    <latitude>30.229521</latitude>
    <longitude>120.1733</longitude>
    <campus>华家池</campus>
    <city>杭州</city>
  </location>
  <location>
    <deal_id>518161</deal_id>
    <shop_id></shop_id>
    <address>余杭区乔司镇乔莫东路46号</address>
    <latitude>30.348815</latitude>
    <longitude>120.293482</longitude>
    <campus>华家池</campus>
    <city>杭州</city>
  </location>
  <location>
    <deal_id>728308</deal_id>
    <shop_id></shop_id>
    <address>西湖区四眼井228号</address>
    <latitude>30.216909</latitude>
    <longitude>120.136231</longitude>
    <campus>之江</campus>
    <city>杭州</city>
  </location>
  <location>
    <deal_id>269247</deal_id>
    <shop_id></shop_id>
    <address>江干区钱潮路2号天元大厦34楼</address>
    <latitude>30.25463</latitude>
    <longitude>120.224343</longitude>
    <campus>华家池</campus>
    <city>杭州</city>
  </location>
  <location>
    <deal_id>536071</deal_id>
    <shop_id></shop_id>
    <address>嘉行公路221号（盘龙河大浴场对面）</address>
    <latitude>31.398332</latitude>
    <longitude>121.254625</longitude>
    <campus>华家池</campus>
    <city>上海,无锡,南通,扬州,镇江,泰州,杭州,宁波,嘉兴,湖州,绍兴,金华,台州,义乌</city>
  </location>
  <location>
    <deal_id>536071</deal_id>
    <shop_id></shop_id>
    <address>博乐路85号（质量监督局旁）</address>
    <latitude>31.381533</latitude>
    <longitude>121.255344</longitude>
    <campus>华家池</campus>
    <city>上海,无锡,南通,扬州,镇江,泰州,杭州,宁波,嘉兴,湖州,绍兴,金华,台州,义乌</city>
  </location>
  <location>
    <deal_id>536071</deal_id>
    <shop_id></shop_id>
    <address>安亭镇新源路888号（安亭小学旁）</address>
    <latitude>31.301415</latitude>
    <longitude>121.153307</longitude>
    <campus>华家池</campus>
    <city>上海,无锡,南通,扬州,镇江,泰州,杭州,宁波,嘉兴,湖州,绍兴,金华,台州,义乌</city>
  </location>
  <location>
    <deal_id>536071</deal_id>
    <shop_id></shop_id>
    <address>双城路436号（宝宸花园对面）</address>
    <latitude>31.390489</latitude>
    <longitude>121.493908</longitude>
    <campus>华家池</campus>
    <city>上海,无锡,南通,扬州,镇江,泰州,杭州,宁波,嘉兴,湖州,绍兴,金华,台州,义乌</city>
  </location>
  <location>
    <deal_id>536071</deal_id>
    <shop_id></shop_id>
    <address>环城路980号（两岸咖啡旁）</address>
    <latitude>31.013214</latitude>
    <longitude>121.244623</longitude>
    <campus>华家池</campus>
    <city>上海,无锡,南通,扬州,镇江,泰州,杭州,宁波,嘉兴,湖州,绍兴,金华,台州,义乌</city>
  </location>
  <location>
    <deal_id>536071</deal_id>
    <shop_id></shop_id>
    <address>乐都西路835号</address>
    <latitude>31.012799</latitude>
    <longitude>121.206481</longitude>
    <campus>华家池</campus>
    <city>上海,无锡,南通,扬州,镇江,泰州,杭州,宁波,嘉兴,湖州,绍兴,金华,台州,义乌</city>
  </location>
  <location>
    <deal_id>536071</deal_id>
    <shop_id></shop_id>
    <address>莘松路1000号101室（巴比伦广场）</address>
    <latitude>31.100222</latitude>
    <longitude>121.357753</longitude>
    <campus>华家池</campus>
    <city>上海,无锡,南通,扬州,镇江,泰州,杭州,宁波,嘉兴,湖州,绍兴,金华,台州,义乌</city>
  </location>
  <location>
    <deal_id>536071</deal_id>
    <shop_id></shop_id>
    <address>上海市金山区卫清西路350号（乐购斜对面）</address>
    <latitude>30.729453</latitude>
    <longitude>121.344515</longitude>
    <campus>华家池</campus>
    <city>上海,无锡,南通,扬州,镇江,泰州,杭州,宁波,嘉兴,湖州,绍兴,金华,台州,义乌</city>
  </location>
  <location>
    <deal_id>536071</deal_id>
    <shop_id></shop_id>
    <address>上海市奉贤区解放中路51号（古华公园对面）</address>
    <latitude>30.916548</latitude>
    <longitude>121.467056</longitude>
    <campus>华家池</campus>
    <city>上海,无锡,南通,扬州,镇江,泰州,杭州,宁波,嘉兴,湖州,绍兴,金华,台州,义乌</city>
  </location>
  <location>
    <deal_id>536071</deal_id>
    <shop_id></shop_id>
    <address>川沙镇华夏东路2480号（锦江之星宾馆一楼）</address>
    <latitude>31.199673</latitude>
    <longitude>121.699767</longitude>
    <campus>华家池</campus>
    <city>上海,无锡,南通,扬州,镇江,泰州,杭州,宁波,嘉兴,湖州,绍兴,金华,台州,义乌</city>
  </location>
  <location>
    <deal_id>536071</deal_id>
    <shop_id></shop_id>
    <address>铜川路68号（弘基时尚生活中心4楼）</address>
    <latitude>31.254946</latitude>
    <longitude>121.419384</longitude>
    <campus>华家池</campus>
    <city>上海,无锡,南通,扬州,镇江,泰州,杭州,宁波,嘉兴,湖州,绍兴,金华,台州,义乌</city>
  </location>
  <location>
    <deal_id>536071</deal_id>
    <shop_id></shop_id>
    <address>宜山路455号光启城5楼501-502</address>
    <latitude>31.184639</latitude>
    <longitude>121.428593</longitude>
    <campus>华家池</campus>
    <city>上海,无锡,南通,扬州,镇江,泰州,杭州,宁波,嘉兴,湖州,绍兴,金华,台州,义乌</city>
  </location>
  <location>
    <deal_id>536071</deal_id>
    <shop_id></shop_id>
    <address>国定东路347号（关山路交叉口）</address>
    <latitude>31.29477</latitude>
    <longitude>121.519848</longitude>
    <campus>华家池</campus>
    <city>上海,无锡,南通,扬州,镇江,泰州,杭州,宁波,嘉兴,湖州,绍兴,金华,台州,义乌</city>
  </location>
  <location>
    <deal_id>536071</deal_id>
    <shop_id></shop_id>
    <address>萧绍路553号</address>
    <latitude>30.163513</latitude>
    <longitude>120.288465</longitude>
    <campus>华家池</campus>
    <city>上海,无锡,南通,扬州,镇江,泰州,杭州,宁波,嘉兴,湖州,绍兴,金华,台州,义乌</city>
  </location>
  <location>
    <deal_id>536071</deal_id>
    <shop_id></shop_id>
    <address>信义坊商业街34号（ 近湖墅南路）</address>
    <latitude>30.294093</latitude>
    <longitude>120.144329</longitude>
    <campus>西溪</campus>
    <city>上海,无锡,南通,扬州,镇江,泰州,杭州,宁波,嘉兴,湖州,绍兴,金华,台州,义乌</city>
  </location>
  <location>
    <deal_id>536071</deal_id>
    <shop_id></shop_id>
    <address>杭州市余杭区临平街道星火南路50号</address>
    <latitude>30.427749</latitude>
    <longitude>120.30011</longitude>
    <campus>华家池</campus>
    <city>上海,无锡,南通,扬州,镇江,泰州,杭州,宁波,嘉兴,湖州,绍兴,金华,台州,义乌</city>
  </location>
  <location>
    <deal_id>536071</deal_id>
    <shop_id></shop_id>
    <address>上塘路与温州路交叉口958号</address>
    <latitude>30.321297</latitude>
    <longitude>120.146035</longitude>
    <campus>西溪</campus>
    <city>上海,无锡,南通,扬州,镇江,泰州,杭州,宁波,嘉兴,湖州,绍兴,金华,台州,义乌</city>
  </location>
  <location>
    <deal_id>536071</deal_id>
    <shop_id></shop_id>
    <address>文三西路507-509号（十五中学对面）</address>
    <latitude>30.275103</latitude>
    <longitude>120.090939</longitude>
    <campus>玉泉</campus>
    <city>上海,无锡,南通,扬州,镇江,泰州,杭州,宁波,嘉兴,湖州,绍兴,金华,台州,义乌</city>
  </location>
  <location>
    <deal_id>536071</deal_id>
    <shop_id></shop_id>
    <address>四明中路1016号</address>
    <latitude>29.827399</latitude>
    <longitude>121.544259</longitude>
    <campus>华家池</campus>
    <city>上海,无锡,南通,扬州,镇江,泰州,杭州,宁波,嘉兴,湖州,绍兴,金华,台州,义乌</city>
  </location>
  <location>
    <deal_id>536071</deal_id>
    <shop_id></shop_id>
    <address>姚隘路792号</address>
    <latitude>29.866276</latitude>
    <longitude>121.593168</longitude>
    <campus>华家池</campus>
    <city>上海,无锡,南通,扬州,镇江,泰州,杭州,宁波,嘉兴,湖州,绍兴,金华,台州,义乌</city>
  </location>
  <location>
    <deal_id>536071</deal_id>
    <shop_id></shop_id>
    <address>商业街201-217号</address>
    <latitude>31.689819</latitude>
    <longitude>120.215512</longitude>
    <campus>紫金港</campus>
    <city>上海,无锡,南通,扬州,镇江,泰州,杭州,宁波,嘉兴,湖州,绍兴,金华,台州,义乌</city>
  </location>
  <location>
    <deal_id>536071</deal_id>
    <shop_id></shop_id>
    <address>奉化市南山路66号-3 （南山路和公园路交叉口往北30米）</address>
    <latitude>29.656865</latitude>
    <longitude>121.411277</longitude>
    <campus>华家池</campus>
    <city>上海,无锡,南通,扬州,镇江,泰州,杭州,宁波,嘉兴,湖州,绍兴,金华,台州,义乌</city>
  </location>
  <location>
    <deal_id>536071</deal_id>
    <shop_id></shop_id>
    <address>临安市钱王街万华广场四楼C-006</address>
    <latitude>30.226545</latitude>
    <longitude>119.716035</longitude>
    <campus>紫金港</campus>
    <city>上海,无锡,南通,扬州,镇江,泰州,杭州,宁波,嘉兴,湖州,绍兴,金华,台州,义乌</city>
  </location>
  <location>
    <deal_id>536071</deal_id>
    <shop_id></shop_id>
    <address>外环西路153号（金山宾馆旁）</address>
    <latitude>32.010401</latitude>
    <longitude>120.838587</longitude>
    <campus>华家池</campus>
    <city>上海,无锡,南通,扬州,镇江,泰州,杭州,宁波,嘉兴,湖州,绍兴,金华,台州,义乌</city>
  </location>
  <location>
    <deal_id>536071</deal_id>
    <shop_id></shop_id>
    <address>解放中路71号（金三角花园斜对面）</address>
    <latitude>31.89459</latitude>
    <longitude>121.190465</longitude>
    <campus>华家池</campus>
    <city>上海,无锡,南通,扬州,镇江,泰州,杭州,宁波,嘉兴,湖州,绍兴,金华,台州,义乌</city>
  </location>
  <location>
    <deal_id>536071</deal_id>
    <shop_id></shop_id>
    <address>益寿路658号（三洋摩托车城总部斜对面）</address>
    <latitude>32.398147</latitude>
    <longitude>120.547889</longitude>
    <campus>紫金港</campus>
    <city>上海,无锡,南通,扬州,镇江,泰州,杭州,宁波,嘉兴,湖州,绍兴,金华,台州,义乌</city>
  </location>
  <location>
    <deal_id>536071</deal_id>
    <shop_id></shop_id>
    <address>扬子江中路487号-10（扬州大学附近）</address>
    <latitude>32.378774</latitude>
    <longitude>119.41739</longitude>
    <campus>紫金港</campus>
    <city>上海,无锡,南通,扬州,镇江,泰州,杭州,宁波,嘉兴,湖州,绍兴,金华,台州,义乌</city>
  </location>
  <location>
    <deal_id>536071</deal_id>
    <shop_id></shop_id>
    <address>学府路56号（欧尚超市对面）</address>
    <latitude>32.192572</latitude>
    <longitude>119.481718</longitude>
    <campus>紫金港</campus>
    <city>上海,无锡,南通,扬州,镇江,泰州,杭州,宁波,嘉兴,湖州,绍兴,金华,台州,义乌</city>
  </location>
  <location>
    <deal_id>536071</deal_id>
    <shop_id></shop_id>
    <address>江平路206号（金都公交车站台对面）</address>
    <latitude>32.013723</latitude>
    <longitude>120.267023</longitude>
    <campus>紫金港</campus>
    <city>上海,无锡,南通,扬州,镇江,泰州,杭州,宁波,嘉兴,湖州,绍兴,金华,台州,义乌</city>
  </location>
  <location>
    <deal_id>536071</deal_id>
    <shop_id></shop_id>
    <address>海昌路142号 （海昌路与水月亭路交叉口海宁房地产开放旁边）</address>
    <latitude>30.524589</latitude>
    <longitude>120.68717</longitude>
    <campus>华家池</campus>
    <city>上海,无锡,南通,扬州,镇江,泰州,杭州,宁波,嘉兴,湖州,绍兴,金华,台州,义乌</city>
  </location>
  <location>
    <deal_id>536071</deal_id>
    <shop_id></shop_id>
    <address>新华路702-712号（广电大厦向前200米，宾利大酒店旁边）</address>
    <latitude>30.866207</latitude>
    <longitude>120.123202</longitude>
    <campus>紫金港</campus>
    <city>上海,无锡,南通,扬州,镇江,泰州,杭州,宁波,嘉兴,湖州,绍兴,金华,台州,义乌</city>
  </location>
  <location>
    <deal_id>536071</deal_id>
    <shop_id></shop_id>
    <address>武康镇千秋街余英坊71栋17-24号德清二中对面</address>
    <latitude>30.541048</latitude>
    <longitude>119.973177</longitude>
    <campus>紫金港</campus>
    <city>上海,无锡,南通,扬州,镇江,泰州,杭州,宁波,嘉兴,湖州,绍兴,金华,台州,义乌</city>
  </location>
  <location>
    <deal_id>536071</deal_id>
    <shop_id></shop_id>
    <address>雉城镇海兴路161号 （烟草公司对面，海兴桥旁边）</address>
    <latitude>30.995108</latitude>
    <longitude>119.916015</longitude>
    <campus>紫金港</campus>
    <city>上海,无锡,南通,扬州,镇江,泰州,杭州,宁波,嘉兴,湖州,绍兴,金华,台州,义乌</city>
  </location>
  <location>
    <deal_id>536071</deal_id>
    <shop_id></shop_id>
    <address>云鸿西路139号 （神仙居宾馆对面）</address>
    <latitude>30.623643</latitude>
    <longitude>119.681857</longitude>
    <campus>紫金港</campus>
    <city>上海,无锡,南通,扬州,镇江,泰州,杭州,宁波,嘉兴,湖州,绍兴,金华,台州,义乌</city>
  </location>
  <location>
    <deal_id>536071</deal_id>
    <shop_id></shop_id>
    <address>南街与公园路交汇处东南角爱山广场17号楼3层</address>
    <latitude>30.867519</latitude>
    <longitude>120.100051</longitude>
    <campus>紫金港</campus>
    <city>上海,无锡,南通,扬州,镇江,泰州,杭州,宁波,嘉兴,湖州,绍兴,金华,台州,义乌</city>
  </location>
  <location>
    <deal_id>536071</deal_id>
    <shop_id></shop_id>
    <address>胜利东路355号湖滨商业街1幢324号（欧尚超市对面）</address>
    <latitude>30.004202</latitude>
    <longitude>120.597665</longitude>
    <campus>华家池</campus>
    <city>上海,无锡,南通,扬州,镇江,泰州,杭州,宁波,嘉兴,湖州,绍兴,金华,台州,义乌</city>
  </location>
  <location>
    <deal_id>536071</deal_id>
    <shop_id></shop_id>
    <address>高湖路41号卫生局旁边</address>
    <latitude>29.714303</latitude>
    <longitude>120.250205</longitude>
    <campus>之江</campus>
    <city>上海,无锡,南通,扬州,镇江,泰州,杭州,宁波,嘉兴,湖州,绍兴,金华,台州,义乌</city>
  </location>
  <location>
    <deal_id>536071</deal_id>
    <shop_id></shop_id>
    <address>剡成路158号（剡城路与嵊州大道交叉口农村信用社旁）</address>
    <latitude>29.59696</latitude>
    <longitude>120.830416</longitude>
    <campus>之江</campus>
    <city>上海,无锡,南通,扬州,镇江,泰州,杭州,宁波,嘉兴,湖州,绍兴,金华,台州,义乌</city>
  </location>
  <location>
    <deal_id>536071</deal_id>
    <shop_id></shop_id>
    <address>火车站前五一路679号（满堂红商务宾馆旁边）</address>
    <latitude>29.109055</latitude>
    <longitude>119.639067</longitude>
    <campus>之江</campus>
    <city>上海,无锡,南通,扬州,镇江,泰州,杭州,宁波,嘉兴,湖州,绍兴,金华,台州,义乌</city>
  </location>
  <location>
    <deal_id>536071</deal_id>
    <shop_id></shop_id>
    <address>熟溪北路124号（武义县紫金五盛商业中心五盛街256号）</address>
    <latitude>28.890515</latitude>
    <longitude>119.814639</longitude>
    <campus>之江</campus>
    <city>上海,无锡,南通,扬州,镇江,泰州,杭州,宁波,嘉兴,湖州,绍兴,金华,台州,义乌</city>
  </location>
  <location>
    <deal_id>536071</deal_id>
    <shop_id></shop_id>
    <address>城东路622号（香格里拉花园小区对面）</address>
    <latitude>28.900863</latitude>
    <longitude>120.049962</longitude>
    <campus>之江</campus>
    <city>上海,无锡,南通,扬州,镇江,泰州,杭州,宁波,嘉兴,湖州,绍兴,金华,台州,义乌</city>
  </location>
  <location>
    <deal_id>536071</deal_id>
    <shop_id></shop_id>
    <address>东阳市人民路242号（东阳日报旁边）</address>
    <latitude>29.27824</latitude>
    <longitude>120.240392</longitude>
    <campus>之江</campus>
    <city>上海,无锡,南通,扬州,镇江,泰州,杭州,宁波,嘉兴,湖州,绍兴,金华,台州,义乌</city>
  </location>
  <location>
    <deal_id>536071</deal_id>
    <shop_id></shop_id>
    <address>龙游县龙翔大道吟江宾馆297号</address>
    <latitude>29.036558</latitude>
    <longitude>119.169494</longitude>
    <campus>之江</campus>
    <city>上海,无锡,南通,扬州,镇江,泰州,杭州,宁波,嘉兴,湖州,绍兴,金华,台州,义乌</city>
  </location>
  <location>
    <deal_id>536071</deal_id>
    <shop_id></shop_id>
    <address>万昌中路1269号</address>
    <latitude>28.379223</latitude>
    <longitude>121.378879</longitude>
    <campus>之江</campus>
    <city>上海,无锡,南通,扬州,镇江,泰州,杭州,宁波,嘉兴,湖州,绍兴,金华,台州,义乌</city>
  </location>
  <location>
    <deal_id>536071</deal_id>
    <shop_id></shop_id>
    <address>义东路59号汉宫宾馆一楼</address>
    <latitude>29.312899</latitude>
    <longitude>120.080379</longitude>
    <campus>之江</campus>
    <city>上海,无锡,南通,扬州,镇江,泰州,杭州,宁波,嘉兴,湖州,绍兴,金华,台州,义乌</city>
  </location>
  <location>
    <deal_id>536071</deal_id>
    <shop_id></shop_id>
    <address>稠州北路560号东都宾馆2楼</address>
    <latitude>29.319816</latitude>
    <longitude>120.095264</longitude>
    <campus>之江</campus>
    <city>上海,无锡,南通,扬州,镇江,泰州,杭州,宁波,嘉兴,湖州,绍兴,金华,台州,义乌</city>
  </location>
  <location>
    <deal_id>473846</deal_id>
    <shop_id></shop_id>
    <address>延安路31-4号</address>
    <latitude>30.242589</latitude>
    <longitude>120.164363</longitude>
    <campus>华家池</campus>
    <city>杭州</city>
  </location>
  <location>
    <deal_id>473846</deal_id>
    <shop_id></shop_id>
    <address>武林龙游路39号</address>
    <latitude>30.261325</latitude>
    <longitude>120.159738</longitude>
    <campus>西溪</campus>
    <city>杭州</city>
  </location>
  <location>
    <deal_id>185528</deal_id>
    <shop_id></shop_id>
    <address>天目山镇峼岭村</address>
    <latitude>30.365618</latitude>
    <longitude>119.476537</longitude>
    <campus>紫金港</campus>
    <city>杭州</city>
  </location>
  <location>
    <deal_id>312639</deal_id>
    <shop_id></shop_id>
    <address>艮山东路152号</address>
    <latitude>30.292542</latitude>
    <longitude>120.25101</longitude>
    <campus>华家池</campus>
    <city>杭州</city>
  </location>
  <location>
    <deal_id>771641</deal_id>
    <shop_id></shop_id>
    <address>新塘路119号新城时代广场D座4楼（世纪联华楼上）</address>
    <latitude>30.266504</latitude>
    <longitude>120.207557</longitude>
    <campus>华家池</campus>
    <city>杭州</city>
  </location>
  <location>
    <deal_id>439217</deal_id>
    <shop_id></shop_id>
    <address>西湖区文二路387号</address>
    <latitude>30.28152</latitude>
    <longitude>120.122618</longitude>
    <campus>西溪</campus>
    <city>杭州</city>
  </location>
  <location>
    <deal_id>899959</deal_id>
    <shop_id></shop_id>
    <address>文三西路374号</address>
    <latitude>30.276333</latitude>
    <longitude>120.10606</longitude>
    <campus>玉泉</campus>
    <city>杭州</city>
  </location>
  <location>
    <deal_id>713035</deal_id>
    <shop_id></shop_id>
    <address>中山南路363号</address>
    <latitude>30.233835</latitude>
    <longitude>120.170382</longitude>
    <campus>华家池</campus>
    <city>杭州</city>
  </location>
  <location>
    <deal_id>425570</deal_id>
    <shop_id></shop_id>
    <address>市心中路588号3楼（宝盛宾馆旁）</address>
    <latitude>30.175864</latitude>
    <longitude>120.267615</longitude>
    <campus>华家池</campus>
    <city>杭州</city>
  </location>
  <location>
    <deal_id>933390</deal_id>
    <shop_id></shop_id>
    <address>古墩路588号印象城购物中心4楼(近余杭塘路)</address>
    <latitude>30.293494</latitude>
    <longitude>120.097982</longitude>
    <campus>紫金港</campus>
    <city>杭州</city>
  </location>
  <location>
    <deal_id>444347</deal_id>
    <shop_id></shop_id>
    <address>青云街50号</address>
    <latitude>30.264206</latitude>
    <longitude>120.171859</longitude>
    <campus>华家池</campus>
    <city>杭州</city>
  </location>
  <location>
    <deal_id>444347</deal_id>
    <shop_id></shop_id>
    <address>文一路310号</address>
    <latitude>30.287941</latitude>
    <longitude>120.119543</longitude>
    <campus>西溪</campus>
    <city>杭州</city>
  </location>
  <location>
    <deal_id>444347</deal_id>
    <shop_id></shop_id>
    <address>大学路158号</address>
    <latitude>30.257007</latitude>
    <longitude>120.183286</longitude>
    <campus>华家池</campus>
    <city>杭州</city>
  </location>
  <location>
    <deal_id>444347</deal_id>
    <shop_id></shop_id>
    <address>登云路501号</address>
    <latitude>30.305635</latitude>
    <longitude>120.124194</longitude>
    <campus>西溪</campus>
    <city>杭州</city>
  </location>
  <location>
    <deal_id>444347</deal_id>
    <shop_id></shop_id>
    <address>市心北路199号（与建设三路交叉口，绿都百瑞广场一号楼）</address>
    <latitude>30.204114</latitude>
    <longitude>120.266996</longitude>
    <campus>华家池</campus>
    <city>杭州</city>
  </location>
  <location>
    <deal_id>851863</deal_id>
    <shop_id></shop_id>
    <address>湖墅南路257号9幢1楼</address>
    <latitude>30.284</latitude>
    <longitude>120.152</longitude>
    <campus>西溪</campus>
    <city>杭州</city>
  </location>
  <location>
    <deal_id>955311</deal_id>
    <shop_id></shop_id>
    <address>市心南路98号城市酒店3楼</address>
    <latitude>30.162509</latitude>
    <longitude>120.267324</longitude>
    <campus>华家池</campus>
    <city>杭州</city>
  </location>
  <location>
    <deal_id>822512</deal_id>
    <shop_id></shop_id>
    <address>虎跑路31号</address>
    <latitude>30.220899</latitude>
    <longitude>120.136931</longitude>
    <campus>之江</campus>
    <city>杭州</city>
  </location>
  <location>
    <deal_id>586184</deal_id>
    <shop_id></shop_id>
    <address>金城路412号（华夏银行对面）</address>
    <latitude>30.181256</latitude>
    <longitude>120.255587</longitude>
    <campus>华家池</campus>
    <city>杭州</city>
  </location>
  <location>
    <deal_id>841704</deal_id>
    <shop_id></shop_id>
    <address>东坡路12号（近平海路）</address>
    <latitude>30.253612</latitude>
    <longitude>120.162949</longitude>
    <campus>华家池</campus>
    <city>杭州</city>
  </location>
  <location>
    <deal_id>169747</deal_id>
    <shop_id></shop_id>
    <address>河东路233-2号(近潮王路)</address>
    <latitude>30.289809</latitude>
    <longitude>120.15902</longitude>
    <campus>西溪</campus>
    <city>杭州</city>
  </location>
  <location>
    <deal_id>234308</deal_id>
    <shop_id></shop_id>
    <address>高沙商业街文渊路133号文渊大厦2层	</address>
    <latitude>30.316098</latitude>
    <longitude>120.338397</longitude>
    <campus>华家池</campus>
    <city>杭州</city>
  </location>
  <location>
    <deal_id>720402</deal_id>
    <shop_id></shop_id>
    <address>武义县俞源乡俞源村/武义俞源乡岩坑村</address>
    <latitude>28.885264</latitude>
    <longitude>119.833032</longitude>
    <campus>之江</campus>
    <city>金华,上海,杭州,绍兴,义乌</city>
  </location>
  <location>
    <deal_id>575366</deal_id>
    <shop_id></shop_id>
    <address>下沙四季风景苑10幢（商）1（物美对面联合银行巷子直走）</address>
    <latitude>30.302328</latitude>
    <longitude>120.346491</longitude>
    <campus>华家池</campus>
    <city>杭州</city>
  </location>
  <location>
    <deal_id>200735</deal_id>
    <shop_id></shop_id>
    <address>宁税路109号</address>
    <latitude>30.196348</latitude>
    <longitude>120.27873</longitude>
    <campus>华家池</campus>
    <city>杭州</city>
  </location>
  <location>
    <deal_id>521177</deal_id>
    <shop_id></shop_id>
    <address>滨江区环兴路322号（滨安路与环兴路交叉口杭州华美达酒店旁）</address>
    <latitude>30.185476</latitude>
    <longitude>120.170703</longitude>
    <campus>之江</campus>
    <city>杭州</city>
  </location>
  <location>
    <deal_id>404779</deal_id>
    <shop_id></shop_id>
    <address>西湖区黄姑山路38号</address>
    <latitude>30.276049</latitude>
    <longitude>120.133731</longitude>
    <campus>西溪</campus>
    <city>杭州</city>
  </location>
  <location>
    <deal_id>404779</deal_id>
    <shop_id></shop_id>
    <address>江干区双菱路102号</address>
    <latitude>30.258401</latitude>
    <longitude>120.195738</longitude>
    <campus>华家池</campus>
    <city>杭州</city>
  </location>
  <location>
    <deal_id>404779</deal_id>
    <shop_id></shop_id>
    <address>西湖区丰潭路275-277号（鼎江南大酒店）</address>
    <latitude>30.297158</latitude>
    <longitude>120.105423</longitude>
    <campus>紫金港</campus>
    <city>杭州</city>
  </location>
  <location>
    <deal_id>404779</deal_id>
    <shop_id></shop_id>
    <address>竞舟路220号金城花园22-24号</address>
    <latitude>30.283568</latitude>
    <longitude>120.104583</longitude>
    <campus>玉泉</campus>
    <city>杭州</city>
  </location>
  <location>
    <deal_id>380389</deal_id>
    <shop_id></shop_id>
    <address>拱墅区莫干山路美都广场C座1519室</address>
    <latitude>30.29889</latitude>
    <longitude>120.133697</longitude>
    <campus>西溪</campus>
    <city>杭州</city>
  </location>
  <location>
    <deal_id>885980</deal_id>
    <shop_id></shop_id>
    <address>中山中路479号（近平海路）</address>
    <latitude>30.253597</latitude>
    <longitude>120.169937</longitude>
    <campus>华家池</campus>
    <city>杭州</city>
  </location>
  <location>
    <deal_id>233004</deal_id>
    <shop_id></shop_id>
    <address>湖州街20号纳德自由酒店5楼</address>
    <latitude>30.323117</latitude>
    <longitude>120.159788</longitude>
    <campus>西溪</campus>
    <city>杭州</city>
  </location>
  <location>
    <deal_id>233004</deal_id>
    <shop_id></shop_id>
    <address>湖墅南路2号纳德大酒店4楼</address>
    <latitude>30.27353</latitude>
    <longitude>120.156914</longitude>
    <campus>西溪</campus>
    <city>杭州</city>
  </location>
  <location>
    <deal_id>526761</deal_id>
    <shop_id></shop_id>
    <address>拱墅区莫干山路美都广场C座1519室</address>
    <latitude>30.29889</latitude>
    <longitude>120.133697</longitude>
    <campus>西溪</campus>
    <city>杭州</city>
  </location>
  <location>
    <deal_id>986170</deal_id>
    <shop_id></shop_id>
    <address>通惠中路218号</address>
    <latitude>30.170373</latitude>
    <longitude>120.287172</longitude>
    <campus>华家池</campus>
    <city>杭州</city>
  </location>
  <location>
    <deal_id>825270</deal_id>
    <shop_id></shop_id>
    <address>市心中路288号（银隆百货地下一层 ）</address>
    <latitude>30.171244</latitude>
    <longitude>120.267352</longitude>
    <campus>华家池</campus>
    <city>杭州</city>
  </location>
  <location>
    <deal_id>825270</deal_id>
    <shop_id></shop_id>
    <address>湖墅南路206号（红石广场）</address>
    <latitude>30.282609</latitude>
    <longitude>120.153328</longitude>
    <campus>西溪</campus>
    <city>杭州</city>
  </location>
  <location>
    <deal_id>466164</deal_id>
    <shop_id></shop_id>
    <address>南环路1888号</address>
    <latitude>30.177014</latitude>
    <longitude>120.195229</longitude>
    <campus>之江</campus>
    <city>杭州</city>
  </location>
  <location>
    <deal_id>204849</deal_id>
    <shop_id></shop_id>
    <address>湖州街20号纳德自由酒店5楼</address>
    <latitude>30.323117</latitude>
    <longitude>120.159788</longitude>
    <campus>西溪</campus>
    <city>杭州</city>
  </location>
  <location>
    <deal_id>204849</deal_id>
    <shop_id></shop_id>
    <address>湖墅南路2号纳德大酒店4楼</address>
    <latitude>30.27353</latitude>
    <longitude>120.156914</longitude>
    <campus>西溪</campus>
    <city>杭州</city>
  </location>
  <location>
    <deal_id>784572</deal_id>
    <shop_id></shop_id>
    <address>古墩路701号紫金广场B座5楼</address>
    <latitude>30.306533</latitude>
    <longitude>120.096311</longitude>
    <campus>紫金港</campus>
    <city>杭州</city>
  </location>
  <location>
    <deal_id>742217</deal_id>
    <shop_id></shop_id>
    <address>市心中路588号3楼（宝盛宾馆旁）</address>
    <latitude>30.175864</latitude>
    <longitude>120.267615</longitude>
    <campus>华家池</campus>
    <city>杭州</city>
  </location>
  <location>
    <deal_id>918540</deal_id>
    <shop_id></shop_id>
    <address>体育场路370号瑞豪中心酒店22楼</address>
    <latitude>30.270772</latitude>
    <longitude>120.161292</longitude>
    <campus>华家池</campus>
    <city>杭州</city>
  </location>
  <location>
    <deal_id>817211</deal_id>
    <shop_id></shop_id>
    <address>西湖区保俶路27号宝石山下二弄5号</address>
    <latitude>30.261372</latitude>
    <longitude>120.151726</longitude>
    <campus>西溪</campus>
    <city>杭州</city>
  </location>
  <location>
    <deal_id>403113</deal_id>
    <shop_id></shop_id>
    <address>西湖区玉古路11号</address>
    <latitude>30.262318</latitude>
    <longitude>120.126416</longitude>
    <campus>玉泉</campus>
    <city>杭州</city>
  </location>
  <location>
    <deal_id>183923</deal_id>
    <shop_id></shop_id>
    <address>国货路69号(上岛咖啡后面)</address>
    <latitude>30.274089</latitude>
    <longitude>120.155069</longitude>
    <campus>西溪</campus>
    <city>杭州</city>
  </location>
  <location>
    <deal_id>742869</deal_id>
    <shop_id></shop_id>
    <address>定安路30号（西湖银泰对面）</address>
    <latitude>30.243965</latitude>
    <longitude>120.166626</longitude>
    <campus>华家池</campus>
    <city>杭州</city>
  </location>
  <location>
    <deal_id>570873</deal_id>
    <shop_id></shop_id>
    <address>北干街道工人路906号（恒隆广场伯悦咖啡楼下）</address>
    <latitude>30.178821</latitude>
    <longitude>120.260855</longitude>
    <campus>华家池</campus>
    <city>杭州</city>
  </location>
  <location>
    <deal_id>948444</deal_id>
    <shop_id></shop_id>
    <address>凤起东路129号</address>
    <latitude>30.263961</latitude>
    <longitude>120.202088</longitude>
    <campus>华家池</campus>
    <city>杭州</city>
  </location>
  <location>
    <deal_id>418843</deal_id>
    <shop_id></shop_id>
    <address>湘湖路3318号</address>
    <latitude>30.122299</latitude>
    <longitude>120.189692</longitude>
    <campus>之江</campus>
    <city>杭州</city>
  </location>
  <location>
    <deal_id>859774</deal_id>
    <shop_id></shop_id>
    <address>观雅电子商务有限公司</address>
    <latitude>39</latitude>
    <longitude>116</longitude>
    <campus>紫金港</campus>
    <city>北京,天津,石家庄,廊坊,唐山,秦皇岛,邯郸,保定,邢台,张家口,承德,沧州,衡水,太原,运城,临汾,大同,阳泉,长治,晋城,朔州,晋中,忻州,吕梁,呼和浩特,包头,乌海,赤峰,通辽,鄂尔多斯,呼伦贝尔,巴彦淖尔,乌兰察布,兴安,锡林郭勒,阿拉善,大连,沈阳,锦州,鞍山,抚顺,葫芦岛,本溪,丹东,营口,阜新,辽阳,盘锦,铁岭,朝阳,长春,吉林,四平,辽源,通化,白山,松原,白城,延边,哈尔滨,齐齐哈尔,大庆,鸡西,鹤岗,双鸭山,伊春,佳木斯,七台河,牡丹江,黑河,绥化,大兴安岭,上海,无锡,南京,苏州,南通,常州,徐州,扬州,连云港,盐城,镇江,泰州,昆山,淮安,宿迁,江阴,杭州,宁波,温州,嘉兴,湖州,绍兴,金华,台州,义乌,衢州,舟山,丽水,合肥,芜湖,蚌埠,淮南,马鞍山,淮北,铜陵,安庆,黄山,滁州,阜阳,宿州,巢湖,六安,亳州,池州,宣城,福州,厦门,泉州,莆田,三明,漳州,南平,龙岩,宁德,南昌,九江,景德镇,萍乡,新余,鹰潭,赣州,吉安,宜春,抚州,上饶,青岛,淄博,济南,烟台,东营,潍坊,济宁,泰安,威海,临沂,聊城,枣庄,日照,莱芜,德州,滨州,菏泽,郑州,焦作,洛阳,新乡,开封,平顶山,安阳,鹤壁,濮阳,许昌,漯河,三门峡,南阳,商丘,信阳,周口,驻马店,济源,武汉,宜昌,襄阳,荆州,黄石,十堰,鄂州,荆门,孝感,黄冈,咸宁,随州,恩施,三峡,仙桃,长沙,衡阳,岳阳,株洲,湘潭,邵阳,常德,张家界,益阳,郴州,永州,怀化,娄底,湘西,广州,深圳,东莞,佛山,珠海,中山,江门,惠州,顺德,汕头,韶关,湛江,茂名,肇庆,梅州,汕尾,河源,阳江,清远,潮州,揭阳,云浮,桂林,南宁,柳州,梧州,北海,防城港,钦州,贵港,玉林,百色,贺州,河池,来宾,崇左,海口,三亚,重庆,成都,自贡,攀枝花,泸州,德阳,绵阳,广元,遂宁,内江,乐山,南充,眉山,宜宾,广安,达州,雅安,巴中,资阳,阿坝,甘孜,凉山,贵阳,遵义,六盘水,安顺,铜仁,黔西南,毕节,黔东南,黔南,昆明,曲靖,玉溪,保山,昭通,丽江,普洱,临沧,楚雄,红河,文山,西双版纳,大理,德宏,怒江,迪庆,西安,铜川,宝鸡,咸阳,渭南,延安,汉中,榆林,安康,商洛,银川,石嘴山,吴忠,固原,中卫</city>
  </location>
  <location>
    <deal_id>969825</deal_id>
    <shop_id></shop_id>
    <address>学源街1156号</address>
    <latitude>30.319099</latitude>
    <longitude>120.336487</longitude>
    <campus>华家池</campus>
    <city>杭州</city>
  </location>
  <location>
    <deal_id>211931</deal_id>
    <shop_id></shop_id>
    <address>凤起路299号纺织品市场2楼（杭州高级中学对面，环北市场旁）</address>
    <latitude>30.264478</latitude>
    <longitude>120.172061</longitude>
    <campus>华家池</campus>
    <city>杭州</city>
  </location>
  <location>
    <deal_id>343772</deal_id>
    <shop_id></shop_id>
    <address>山阴路688号恒隆广场D区5楼</address>
    <latitude>30.17752</latitude>
    <longitude>120.263205</longitude>
    <campus>华家池</campus>
    <city>杭州</city>
  </location>
  <location>
    <deal_id>170930</deal_id>
    <shop_id></shop_id>
    <address>西湖区文一西路91号（文一西路丰潭路交叉口）</address>
    <latitude>30.286613</latitude>
    <longitude>120.108677</longitude>
    <campus>玉泉</campus>
    <city>杭州</city>
  </location>
  <location>
    <deal_id>934799</deal_id>
    <shop_id></shop_id>
    <address>古墩路707号城市发展大厦国美电器西座</address>
    <latitude>30.274089</latitude>
    <longitude>120.155069</longitude>
    <campus>西溪</campus>
    <city>杭州</city>
  </location>
  <location>
    <deal_id>363723</deal_id>
    <shop_id></shop_id>
    <address>白傅路5号</address>
    <latitude>30.256504</latitude>
    <longitude>120.160981</longitude>
    <campus>华家池</campus>
    <city>杭州</city>
  </location>
  <location>
    <deal_id>996777</deal_id>
    <shop_id></shop_id>
    <address>秋涛北路320号</address>
    <latitude>30.289469</latitude>
    <longitude>120.198271</longitude>
    <campus>华家池</campus>
    <city>杭州</city>
  </location>
  <location>
    <deal_id>436138</deal_id>
    <shop_id></shop_id>
    <address>河坊街38号 </address>
    <latitude>30.239384</latitude>
    <longitude>120.176685</longitude>
    <campus>华家池</campus>
    <city>杭州</city>
  </location>
  <location>
    <deal_id>629969</deal_id>
    <shop_id></shop_id>
    <address>嘉行公路221号（盘龙河大浴场对面）</address>
    <latitude>31.398332</latitude>
    <longitude>121.254625</longitude>
    <campus>华家池</campus>
    <city>上海,无锡,南通,扬州,镇江,泰州,杭州,宁波,嘉兴,湖州,绍兴,金华,台州,义乌</city>
  </location>
  <location>
    <deal_id>629969</deal_id>
    <shop_id></shop_id>
    <address>博乐路85号（质量监督局旁）</address>
    <latitude>31.381533</latitude>
    <longitude>121.255344</longitude>
    <campus>华家池</campus>
    <city>上海,无锡,南通,扬州,镇江,泰州,杭州,宁波,嘉兴,湖州,绍兴,金华,台州,义乌</city>
  </location>
  <location>
    <deal_id>629969</deal_id>
    <shop_id></shop_id>
    <address>安亭镇新源路888号（安亭小学旁）</address>
    <latitude>31.301415</latitude>
    <longitude>121.153307</longitude>
    <campus>华家池</campus>
    <city>上海,无锡,南通,扬州,镇江,泰州,杭州,宁波,嘉兴,湖州,绍兴,金华,台州,义乌</city>
  </location>
  <location>
    <deal_id>629969</deal_id>
    <shop_id></shop_id>
    <address>双城路436号（宝宸花园对面）</address>
    <latitude>31.390489</latitude>
    <longitude>121.493908</longitude>
    <campus>华家池</campus>
    <city>上海,无锡,南通,扬州,镇江,泰州,杭州,宁波,嘉兴,湖州,绍兴,金华,台州,义乌</city>
  </location>
  <location>
    <deal_id>629969</deal_id>
    <shop_id></shop_id>
    <address>环城路980号（两岸咖啡旁）</address>
    <latitude>31.013214</latitude>
    <longitude>121.244623</longitude>
    <campus>华家池</campus>
    <city>上海,无锡,南通,扬州,镇江,泰州,杭州,宁波,嘉兴,湖州,绍兴,金华,台州,义乌</city>
  </location>
  <location>
    <deal_id>629969</deal_id>
    <shop_id></shop_id>
    <address>乐都西路835号</address>
    <latitude>31.012799</latitude>
    <longitude>121.206481</longitude>
    <campus>华家池</campus>
    <city>上海,无锡,南通,扬州,镇江,泰州,杭州,宁波,嘉兴,湖州,绍兴,金华,台州,义乌</city>
  </location>
  <location>
    <deal_id>629969</deal_id>
    <shop_id></shop_id>
    <address>莘松路1000号101室（巴比伦广场）</address>
    <latitude>31.100222</latitude>
    <longitude>121.357753</longitude>
    <campus>华家池</campus>
    <city>上海,无锡,南通,扬州,镇江,泰州,杭州,宁波,嘉兴,湖州,绍兴,金华,台州,义乌</city>
  </location>
  <location>
    <deal_id>629969</deal_id>
    <shop_id></shop_id>
    <address>上海市金山区卫清西路350号（乐购斜对面）</address>
    <latitude>30.729453</latitude>
    <longitude>121.344515</longitude>
    <campus>华家池</campus>
    <city>上海,无锡,南通,扬州,镇江,泰州,杭州,宁波,嘉兴,湖州,绍兴,金华,台州,义乌</city>
  </location>
  <location>
    <deal_id>629969</deal_id>
    <shop_id></shop_id>
    <address>上海市奉贤区解放中路51号（古华公园对面）</address>
    <latitude>30.916548</latitude>
    <longitude>121.467056</longitude>
    <campus>华家池</campus>
    <city>上海,无锡,南通,扬州,镇江,泰州,杭州,宁波,嘉兴,湖州,绍兴,金华,台州,义乌</city>
  </location>
  <location>
    <deal_id>629969</deal_id>
    <shop_id></shop_id>
    <address>川沙镇华夏东路2480号（锦江之星宾馆一楼）</address>
    <latitude>31.199673</latitude>
    <longitude>121.699767</longitude>
    <campus>华家池</campus>
    <city>上海,无锡,南通,扬州,镇江,泰州,杭州,宁波,嘉兴,湖州,绍兴,金华,台州,义乌</city>
  </location>
  <location>
    <deal_id>629969</deal_id>
    <shop_id></shop_id>
    <address>铜川路68号（弘基时尚生活中心4楼）</address>
    <latitude>31.254946</latitude>
    <longitude>121.419384</longitude>
    <campus>华家池</campus>
    <city>上海,无锡,南通,扬州,镇江,泰州,杭州,宁波,嘉兴,湖州,绍兴,金华,台州,义乌</city>
  </location>
  <location>
    <deal_id>629969</deal_id>
    <shop_id></shop_id>
    <address>宜山路455号光启城5楼501-502</address>
    <latitude>31.184639</latitude>
    <longitude>121.428593</longitude>
    <campus>华家池</campus>
    <city>上海,无锡,南通,扬州,镇江,泰州,杭州,宁波,嘉兴,湖州,绍兴,金华,台州,义乌</city>
  </location>
  <location>
    <deal_id>629969</deal_id>
    <shop_id></shop_id>
    <address>国定东路347号（关山路交叉口）</address>
    <latitude>31.29477</latitude>
    <longitude>121.519848</longitude>
    <campus>华家池</campus>
    <city>上海,无锡,南通,扬州,镇江,泰州,杭州,宁波,嘉兴,湖州,绍兴,金华,台州,义乌</city>
  </location>
  <location>
    <deal_id>629969</deal_id>
    <shop_id></shop_id>
    <address>萧绍路553号</address>
    <latitude>30.163513</latitude>
    <longitude>120.288465</longitude>
    <campus>华家池</campus>
    <city>上海,无锡,南通,扬州,镇江,泰州,杭州,宁波,嘉兴,湖州,绍兴,金华,台州,义乌</city>
  </location>
  <location>
    <deal_id>629969</deal_id>
    <shop_id></shop_id>
    <address>信义坊商业街34号（ 近湖墅南路）</address>
    <latitude>30.294093</latitude>
    <longitude>120.144329</longitude>
    <campus>西溪</campus>
    <city>上海,无锡,南通,扬州,镇江,泰州,杭州,宁波,嘉兴,湖州,绍兴,金华,台州,义乌</city>
  </location>
  <location>
    <deal_id>629969</deal_id>
    <shop_id></shop_id>
    <address>杭州市余杭区临平街道星火南路50号</address>
    <latitude>30.427749</latitude>
    <longitude>120.30011</longitude>
    <campus>华家池</campus>
    <city>上海,无锡,南通,扬州,镇江,泰州,杭州,宁波,嘉兴,湖州,绍兴,金华,台州,义乌</city>
  </location>
  <location>
    <deal_id>629969</deal_id>
    <shop_id></shop_id>
    <address>上塘路与温州路交叉口958号</address>
    <latitude>30.321297</latitude>
    <longitude>120.146035</longitude>
    <campus>西溪</campus>
    <city>上海,无锡,南通,扬州,镇江,泰州,杭州,宁波,嘉兴,湖州,绍兴,金华,台州,义乌</city>
  </location>
  <location>
    <deal_id>629969</deal_id>
    <shop_id></shop_id>
    <address>文三西路507-509号（十五中学对面）</address>
    <latitude>30.275103</latitude>
    <longitude>120.090939</longitude>
    <campus>玉泉</campus>
    <city>上海,无锡,南通,扬州,镇江,泰州,杭州,宁波,嘉兴,湖州,绍兴,金华,台州,义乌</city>
  </location>
  <location>
    <deal_id>629969</deal_id>
    <shop_id></shop_id>
    <address>四明中路1016号</address>
    <latitude>29.827399</latitude>
    <longitude>121.544259</longitude>
    <campus>华家池</campus>
    <city>上海,无锡,南通,扬州,镇江,泰州,杭州,宁波,嘉兴,湖州,绍兴,金华,台州,义乌</city>
  </location>
  <location>
    <deal_id>629969</deal_id>
    <shop_id></shop_id>
    <address>姚隘路792号</address>
    <latitude>29.866276</latitude>
    <longitude>121.593168</longitude>
    <campus>华家池</campus>
    <city>上海,无锡,南通,扬州,镇江,泰州,杭州,宁波,嘉兴,湖州,绍兴,金华,台州,义乌</city>
  </location>
  <location>
    <deal_id>629969</deal_id>
    <shop_id></shop_id>
    <address>商业街201-217号</address>
    <latitude>31.689819</latitude>
    <longitude>120.215512</longitude>
    <campus>紫金港</campus>
    <city>上海,无锡,南通,扬州,镇江,泰州,杭州,宁波,嘉兴,湖州,绍兴,金华,台州,义乌</city>
  </location>
  <location>
    <deal_id>629969</deal_id>
    <shop_id></shop_id>
    <address>奉化市南山路66号-3 （南山路和公园路交叉口往北30米）</address>
    <latitude>29.656865</latitude>
    <longitude>121.411277</longitude>
    <campus>华家池</campus>
    <city>上海,无锡,南通,扬州,镇江,泰州,杭州,宁波,嘉兴,湖州,绍兴,金华,台州,义乌</city>
  </location>
  <location>
    <deal_id>629969</deal_id>
    <shop_id></shop_id>
    <address>临安市钱王街万华广场四楼C-006</address>
    <latitude>30.226545</latitude>
    <longitude>119.716035</longitude>
    <campus>紫金港</campus>
    <city>上海,无锡,南通,扬州,镇江,泰州,杭州,宁波,嘉兴,湖州,绍兴,金华,台州,义乌</city>
  </location>
  <location>
    <deal_id>629969</deal_id>
    <shop_id></shop_id>
    <address>外环西路153号（金山宾馆旁）</address>
    <latitude>32.010401</latitude>
    <longitude>120.838587</longitude>
    <campus>华家池</campus>
    <city>上海,无锡,南通,扬州,镇江,泰州,杭州,宁波,嘉兴,湖州,绍兴,金华,台州,义乌</city>
  </location>
  <location>
    <deal_id>629969</deal_id>
    <shop_id></shop_id>
    <address>解放中路71号（金三角花园斜对面）</address>
    <latitude>31.89459</latitude>
    <longitude>121.190465</longitude>
    <campus>华家池</campus>
    <city>上海,无锡,南通,扬州,镇江,泰州,杭州,宁波,嘉兴,湖州,绍兴,金华,台州,义乌</city>
  </location>
  <location>
    <deal_id>629969</deal_id>
    <shop_id></shop_id>
    <address>益寿路658号（三洋摩托车城总部斜对面）</address>
    <latitude>32.398147</latitude>
    <longitude>120.547889</longitude>
    <campus>紫金港</campus>
    <city>上海,无锡,南通,扬州,镇江,泰州,杭州,宁波,嘉兴,湖州,绍兴,金华,台州,义乌</city>
  </location>
  <location>
    <deal_id>629969</deal_id>
    <shop_id></shop_id>
    <address>扬子江中路487号-10（扬州大学附近）</address>
    <latitude>32.378774</latitude>
    <longitude>119.41739</longitude>
    <campus>紫金港</campus>
    <city>上海,无锡,南通,扬州,镇江,泰州,杭州,宁波,嘉兴,湖州,绍兴,金华,台州,义乌</city>
  </location>
  <location>
    <deal_id>629969</deal_id>
    <shop_id></shop_id>
    <address>学府路56号（欧尚超市对面）</address>
    <latitude>32.192572</latitude>
    <longitude>119.481718</longitude>
    <campus>紫金港</campus>
    <city>上海,无锡,南通,扬州,镇江,泰州,杭州,宁波,嘉兴,湖州,绍兴,金华,台州,义乌</city>
  </location>
  <location>
    <deal_id>629969</deal_id>
    <shop_id></shop_id>
    <address>江平路206号（金都公交车站台对面）</address>
    <latitude>32.013723</latitude>
    <longitude>120.267023</longitude>
    <campus>紫金港</campus>
    <city>上海,无锡,南通,扬州,镇江,泰州,杭州,宁波,嘉兴,湖州,绍兴,金华,台州,义乌</city>
  </location>
  <location>
    <deal_id>629969</deal_id>
    <shop_id></shop_id>
    <address>海昌路142号 （海昌路与水月亭路交叉口海宁房地产开放旁边）</address>
    <latitude>30.524589</latitude>
    <longitude>120.68717</longitude>
    <campus>华家池</campus>
    <city>上海,无锡,南通,扬州,镇江,泰州,杭州,宁波,嘉兴,湖州,绍兴,金华,台州,义乌</city>
  </location>
  <location>
    <deal_id>629969</deal_id>
    <shop_id></shop_id>
    <address>新华路702-712号（广电大厦向前200米，宾利大酒店旁边）</address>
    <latitude>30.866207</latitude>
    <longitude>120.123202</longitude>
    <campus>紫金港</campus>
    <city>上海,无锡,南通,扬州,镇江,泰州,杭州,宁波,嘉兴,湖州,绍兴,金华,台州,义乌</city>
  </location>
  <location>
    <deal_id>629969</deal_id>
    <shop_id></shop_id>
    <address>武康镇千秋街余英坊71栋17-24号德清二中对面</address>
    <latitude>30.541048</latitude>
    <longitude>119.973177</longitude>
    <campus>紫金港</campus>
    <city>上海,无锡,南通,扬州,镇江,泰州,杭州,宁波,嘉兴,湖州,绍兴,金华,台州,义乌</city>
  </location>
  <location>
    <deal_id>629969</deal_id>
    <shop_id></shop_id>
    <address>雉城镇海兴路161号 （烟草公司对面，海兴桥旁边）</address>
    <latitude>30.995108</latitude>
    <longitude>119.916015</longitude>
    <campus>紫金港</campus>
    <city>上海,无锡,南通,扬州,镇江,泰州,杭州,宁波,嘉兴,湖州,绍兴,金华,台州,义乌</city>
  </location>
  <location>
    <deal_id>629969</deal_id>
    <shop_id></shop_id>
    <address>云鸿西路139号 （神仙居宾馆对面）</address>
    <latitude>30.623643</latitude>
    <longitude>119.681857</longitude>
    <campus>紫金港</campus>
    <city>上海,无锡,南通,扬州,镇江,泰州,杭州,宁波,嘉兴,湖州,绍兴,金华,台州,义乌</city>
  </location>
  <location>
    <deal_id>629969</deal_id>
    <shop_id></shop_id>
    <address>南街与公园路交汇处东南角爱山广场17号楼3层</address>
    <latitude>30.867519</latitude>
    <longitude>120.100051</longitude>
    <campus>紫金港</campus>
    <city>上海,无锡,南通,扬州,镇江,泰州,杭州,宁波,嘉兴,湖州,绍兴,金华,台州,义乌</city>
  </location>
  <location>
    <deal_id>629969</deal_id>
    <shop_id></shop_id>
    <address>胜利东路355号湖滨商业街1幢324号（欧尚超市对面）</address>
    <latitude>30.004202</latitude>
    <longitude>120.597665</longitude>
    <campus>华家池</campus>
    <city>上海,无锡,南通,扬州,镇江,泰州,杭州,宁波,嘉兴,湖州,绍兴,金华,台州,义乌</city>
  </location>
  <location>
    <deal_id>629969</deal_id>
    <shop_id></shop_id>
    <address>高湖路41号卫生局旁边</address>
    <latitude>29.714303</latitude>
    <longitude>120.250205</longitude>
    <campus>之江</campus>
    <city>上海,无锡,南通,扬州,镇江,泰州,杭州,宁波,嘉兴,湖州,绍兴,金华,台州,义乌</city>
  </location>
  <location>
    <deal_id>629969</deal_id>
    <shop_id></shop_id>
    <address>剡成路158号（剡城路与嵊州大道交叉口农村信用社旁）</address>
    <latitude>29.59696</latitude>
    <longitude>120.830416</longitude>
    <campus>之江</campus>
    <city>上海,无锡,南通,扬州,镇江,泰州,杭州,宁波,嘉兴,湖州,绍兴,金华,台州,义乌</city>
  </location>
  <location>
    <deal_id>629969</deal_id>
    <shop_id></shop_id>
    <address>火车站前五一路679号（满堂红商务宾馆旁边）</address>
    <latitude>29.109055</latitude>
    <longitude>119.639067</longitude>
    <campus>之江</campus>
    <city>上海,无锡,南通,扬州,镇江,泰州,杭州,宁波,嘉兴,湖州,绍兴,金华,台州,义乌</city>
  </location>
  <location>
    <deal_id>629969</deal_id>
    <shop_id></shop_id>
    <address>熟溪北路124号（武义县紫金五盛商业中心五盛街256号）</address>
    <latitude>28.890515</latitude>
    <longitude>119.814639</longitude>
    <campus>之江</campus>
    <city>上海,无锡,南通,扬州,镇江,泰州,杭州,宁波,嘉兴,湖州,绍兴,金华,台州,义乌</city>
  </location>
  <location>
    <deal_id>629969</deal_id>
    <shop_id></shop_id>
    <address>城东路622号（香格里拉花园小区对面）</address>
    <latitude>28.900863</latitude>
    <longitude>120.049962</longitude>
    <campus>之江</campus>
    <city>上海,无锡,南通,扬州,镇江,泰州,杭州,宁波,嘉兴,湖州,绍兴,金华,台州,义乌</city>
  </location>
  <location>
    <deal_id>629969</deal_id>
    <shop_id></shop_id>
    <address>东阳市人民路242号（东阳日报旁边）</address>
    <latitude>29.27824</latitude>
    <longitude>120.240392</longitude>
    <campus>之江</campus>
    <city>上海,无锡,南通,扬州,镇江,泰州,杭州,宁波,嘉兴,湖州,绍兴,金华,台州,义乌</city>
  </location>
  <location>
    <deal_id>629969</deal_id>
    <shop_id></shop_id>
    <address>龙游县龙翔大道吟江宾馆297号</address>
    <latitude>29.036558</latitude>
    <longitude>119.169494</longitude>
    <campus>之江</campus>
    <city>上海,无锡,南通,扬州,镇江,泰州,杭州,宁波,嘉兴,湖州,绍兴,金华,台州,义乌</city>
  </location>
  <location>
    <deal_id>629969</deal_id>
    <shop_id></shop_id>
    <address>万昌中路1269号</address>
    <latitude>28.379223</latitude>
    <longitude>121.378879</longitude>
    <campus>之江</campus>
    <city>上海,无锡,南通,扬州,镇江,泰州,杭州,宁波,嘉兴,湖州,绍兴,金华,台州,义乌</city>
  </location>
  <location>
    <deal_id>629969</deal_id>
    <shop_id></shop_id>
    <address>义东路59号汉宫宾馆一楼</address>
    <latitude>29.312899</latitude>
    <longitude>120.080379</longitude>
    <campus>之江</campus>
    <city>上海,无锡,南通,扬州,镇江,泰州,杭州,宁波,嘉兴,湖州,绍兴,金华,台州,义乌</city>
  </location>
  <location>
    <deal_id>629969</deal_id>
    <shop_id></shop_id>
    <address>稠州北路560号东都宾馆2楼</address>
    <latitude>29.319816</latitude>
    <longitude>120.095264</longitude>
    <campus>之江</campus>
    <city>上海,无锡,南通,扬州,镇江,泰州,杭州,宁波,嘉兴,湖州,绍兴,金华,台州,义乌</city>
  </location>
  <location>
    <deal_id>202026</deal_id>
    <shop_id></shop_id>
    <address>宝岗大道268号1413</address>
