<?xml version="1.0" encoding="UTF-8"?>
<locations>
  <location>
    <deal_id></deal_id>
    <shop_id>B7A52096235369</shop_id>
    <address>杨六堡路18号</address>
    <latitude>30.30053999765</latitude>
    <longitude>120.16873784858</longitude>
    <campus>华家池</campus>
    <city>杭州</city>
  </location>
  <location>
    <deal_id></deal_id>
    <shop_id>6B90E3CC475A67CB</shop_id>
    <address>杭州延安路530号(近武林广场)  </address>
    <latitude>30.267829895019</latitude>
    <longitude>120.16384124756</longitude>
    <campus>华家池</campus>
    <city>杭州</city>
  </location>
  <location>
    <deal_id></deal_id>
    <shop_id>67DB5BD534A601F9C9EB932B796593DF</shop_id>
    <address>海曙区联丰路141号</address>
    <latitude>29.868173095771</latitude>
    <longitude>121.51577208535</longitude>
    <campus>华家池</campus>
    <city>宁波</city>
  </location>
  <location>
    <deal_id></deal_id>
    <shop_id>67DB5BD534A601F9C9EB932B796593DF</shop_id>
    <address>海曙区联丰路141号</address>
    <latitude>29.868173095771</latitude>
    <longitude>121.51577208535</longitude>
    <campus>华家池</campus>
    <city>宁波</city>
  </location>
  <location>
    <deal_id></deal_id>
    <shop_id>10D3B57DCA342B952C99AA47C73BB39D</shop_id>
    <address>桐庐县迎春南路39号</address>
    <latitude>29.78649481213</latitude>
    <longitude>119.69951534272</longitude>
    <campus>之江</campus>
    <city>杭州</city>
  </location>
  <location>
    <deal_id></deal_id>
    <shop_id>B5A11B2CEDB874FB85AFD85A7E4A5794</shop_id>
    <address>江苏省苏州市平江区养育巷</address>
    <latitude>31.305676327704</latitude>
    <longitude>120.61678378839</longitude>
    <campus>华家池</campus>
    <city>苏州</city>
  </location>
  <location>
    <deal_id></deal_id>
    <shop_id>B5A11B2CEDB874FB85AFD85A7E4A5794</shop_id>
    <address>江苏省苏州市平江区养育巷</address>
    <latitude>31.305676327704</latitude>
    <longitude>120.61678378839</longitude>
    <campus>华家池</campus>
    <city>苏州</city>
  </location>
  <location>
    <deal_id></deal_id>
    <shop_id>6B09EA9DE6557811</shop_id>
    <address>上海虹口区东长治路505号</address>
    <latitude>31.250511409</latitude>
    <longitude>121.498129972</longitude>
    <campus>华家池</campus>
    <city>上海</city>
  </location>
  <location>
    <deal_id></deal_id>
    <shop_id>6B09EA9DE6557811</shop_id>
    <address>上海虹口区东长治路505号</address>
    <latitude>31.250511409</latitude>
    <longitude>121.498129972</longitude>
    <campus>华家池</campus>
    <city>上海</city>
  </location>
  <location>
    <deal_id></deal_id>
    <shop_id>E71AE29D47C02C84BDDB6687273F98DA</shop_id>
    <address>凤起东路358号</address>
    <latitude>30.262904179</latitude>
    <longitude>120.21109634858</longitude>
    <campus>华家池</campus>
    <city>杭州</city>
  </location>
  <location>
    <deal_id></deal_id>
    <shop_id>F19B24FAFBFF22</shop_id>
    <address>上海四方路</address>
    <latitude>31.232170341436</latitude>
    <longitude>121.55299873813</longitude>
    <campus>华家池</campus>
    <city>上海&#13;</city>
  </location>
  <location>
    <deal_id></deal_id>
    <shop_id>88CE1CFABAE659AD161787BBD1099D51</shop_id>
    <address>上海青浦区朱家角镇沈太路2588号</address>
    <latitude>31.03131782726</latitude>
    <longitude>121.07929403035</longitude>
    <campus>华家池</campus>
    <city>上海</city>
  </location>
  <location>
    <deal_id></deal_id>
    <shop_id>88CE1CFABAE659AD161787BBD1099D51</shop_id>
    <address>上海青浦区朱家角镇沈太路2588号</address>
    <latitude>31.03131782726</latitude>
    <longitude>121.07929403035</longitude>
    <campus>华家池</campus>
    <city>上海</city>
  </location>
  <location>
    <deal_id></deal_id>
    <shop_id>6B09EA9DE6557811</shop_id>
    <address>上海虹口区东长治路505号</address>
    <latitude>31.250511409</latitude>
    <longitude>121.498129972</longitude>
    <campus>华家池</campus>
    <city>上海</city>
  </location>
  <location>
    <deal_id></deal_id>
    <shop_id>893D92A17D6EEAD9</shop_id>
    <address>绍兴鲁迅中路(中兴南路口)</address>
    <latitude>29.991958667057</latitude>
    <longitude>120.58489342033</longitude>
    <campus>华家池</campus>
    <city>绍兴</city>
  </location>
  <location>
    <deal_id></deal_id>
    <shop_id>F3CCD4223A94A8F0C2AEF664E139DF81</shop_id>
    <address>杭州市余杭区临平东湖南路保元泽第一号楼</address>
    <latitude>30.407848122596</latitude>
    <longitude>120.30929501789</longitude>
    <campus>华家池</campus>
    <city>杭州</city>
  </location>
  <location>
    <deal_id></deal_id>
    <shop_id>F77886758A6D6DAC135A1653356AA5CB</shop_id>
    <address>拱墅区 拱宸桥</address>
    <latitude>30.317798428925</latitude>
    <longitude>120.14187415079</longitude>
    <campus>西溪</campus>
    <city>杭州</city>
  </location>
  <location>
    <deal_id></deal_id>
    <shop_id>B5A11B2CEDB874FB85AFD85A7E4A5794</shop_id>
    <address>江苏省苏州市平江区养育巷</address>
    <latitude>31.305676327704</latitude>
    <longitude>120.61678378839</longitude>
    <campus>华家池</campus>
    <city>苏州</city>
  </location>
  <location>
    <deal_id></deal_id>
    <shop_id>3BAF32181AFD682EC86B5BE21F131592</shop_id>
    <address>杭州上城区中山南路万松岭路</address>
    <latitude>30.227879468747</latitude>
    <longitude>120.1687268083</longitude>
    <campus>华家池</campus>
    <city>杭州</city>
  </location>
  <location>
    <deal_id></deal_id>
    <shop_id>8953158371D097</shop_id>
    <address>杭州下城区东新路西文街口(B3)</address>
    <latitude>30.315933134087</latitude>
    <longitude>120.1740804975</longitude>
    <campus>华家池</campus>
    <city>杭州</city>
  </location>
  <location>
    <deal_id></deal_id>
    <shop_id>E71AE29D47C02C84BDDB6687273F98DA</shop_id>
    <address>凤起东路358号</address>
    <latitude>30.262904179</latitude>
    <longitude>120.21109634858</longitude>
    <campus>华家池</campus>
    <city>杭州</city>
  </location>
  <location>
    <deal_id></deal_id>
    <shop_id>C974EC696B8B9D</shop_id>
    <address>黄山光明顶附近</address>
    <latitude>29.706079878194</latitude>
    <longitude>118.31485338364</longitude>
    <campus>紫金港</campus>
    <city>黄山</city>
  </location>
  <location>
    <deal_id></deal_id>
    <shop_id>6DAF7FE818E997</shop_id>
    <address>杭州市下城区凤起路247号</address>
    <latitude>30.263213286541</latitude>
    <longitude>120.17400074858</longitude>
    <campus>华家池</campus>
    <city>杭州</city>
  </location>
  <location>
    <deal_id></deal_id>
    <shop_id>221C4399D57E8A297C3B31BC6F88373E</shop_id>
    <address>江苏省南通市崇川区任港路</address>
    <latitude>32.009588481299</latitude>
    <longitude>120.83966302985</longitude>
    <campus>华家池</campus>
    <city>南通</city>
  </location>
  <location>
    <deal_id></deal_id>
    <shop_id>221C4399D57E8A297C3B31BC6F88373E</shop_id>
    <address>江苏省南通市崇川区任港路</address>
    <latitude>32.009588481299</latitude>
    <longitude>120.83966302985</longitude>
    <campus>华家池</campus>
    <city>南通</city>
  </location>
  <location>
    <deal_id></deal_id>
    <shop_id>88B3996817384F5381ADFB1AD5321C4D</shop_id>
    <address>大兜路10号</address>
    <latitude>30.296091</latitude>
    <longitude>120.148439</longitude>
    <campus>西溪</campus>
    <city>杭州</city>
  </location>
  <location>
    <deal_id></deal_id>
    <shop_id>88B3996817384F5381ADFB1AD5321C4D</shop_id>
    <address>大兜路10号</address>
    <latitude>30.296091</latitude>
    <longitude>120.148439</longitude>
    <campus>西溪</campus>
    <city>杭州</city>
  </location>
  <location>
    <deal_id></deal_id>
    <shop_id>9DBAA55222543CEB8B646751ACDE9E8B</shop_id>
    <address>苏州高新区通安镇树山村八组</address>
    <latitude>31.362609092937</latitude>
    <longitude>120.46579937371</longitude>
    <campus>紫金港</campus>
    <city>苏州</city>
  </location>
  <location>
    <deal_id></deal_id>
    <shop_id>5D376CFD2A8D31</shop_id>
    <address>绍兴市胜利东路158号</address>
    <latitude>30.004150475193</latitude>
    <longitude>120.58745666445</longitude>
    <campus>华家池</campus>
    <city>绍兴</city>
  </location>
  <location>
    <deal_id></deal_id>
    <shop_id>5D376CFD2A8D31</shop_id>
    <address>绍兴市胜利东路158号</address>
    <latitude>30.004150475193</latitude>
    <longitude>120.58745666445</longitude>
    <campus>华家池</campus>
    <city>绍兴</city>
  </location>
  <location>
    <deal_id></deal_id>
    <shop_id>70E54EA9EF2A99387EE95F7EE4AAF2B0</shop_id>
    <address>浙江省杭州市浣纱路</address>
    <latitude>30.250506276607</latitude>
    <longitude>120.17137884858</longitude>
    <campus>华家池</campus>
    <city>杭州</city>
  </location>
  <location>
    <deal_id></deal_id>
    <shop_id>2BD09CAFEC48B7FAF411E90CF5A3DED3</shop_id>
    <address>浙江省杭州市西湖区紫金港路</address>
    <latitude>30.273024543721</latitude>
    <longitude>120.09230488297</longitude>
    <campus>玉泉</campus>
    <city>杭州</city>
  </location>
  <location>
    <deal_id></deal_id>
    <shop_id>221C4399D57E8A297C3B31BC6F88373E</shop_id>
    <address>江苏省南通市崇川区任港路</address>
    <latitude>32.009588481299</latitude>
    <longitude>120.83966302985</longitude>
    <campus>华家池</campus>
    <city>南通</city>
  </location>
  <location>
    <deal_id></deal_id>
    <shop_id>221C4399D57E8A297C3B31BC6F88373E</shop_id>
    <address>江苏省南通市崇川区任港路</address>
    <latitude>32.009588481299</latitude>
    <longitude>120.83966302985</longitude>
    <campus>华家池</campus>
    <city>南通</city>
  </location>
  <location>
    <deal_id></deal_id>
    <shop_id>B5A11B2CEDB874FB85AFD85A7E4A5794</shop_id>
    <address>江苏省苏州市平江区养育巷</address>
    <latitude>31.305676327704</latitude>
    <longitude>120.61678378839</longitude>
    <campus>华家池</campus>
    <city>苏州</city>
  </location>
  <location>
    <deal_id></deal_id>
    <shop_id>A462F1C193D949</shop_id>
    <address>苏州市平江区观前街碧凤坊64号4d电影店</address>
    <latitude>31.310727444682</latitude>
    <longitude>120.62581738839</longitude>
    <campus>华家池</campus>
    <city>苏州</city>
  </location>
  <location>
    <deal_id></deal_id>
    <shop_id>B5A11B2CEDB874FB85AFD85A7E4A5794</shop_id>
    <address>江苏省苏州市平江区养育巷</address>
    <latitude>31.305676327704</latitude>
    <longitude>120.61678378839</longitude>
    <campus>华家池</campus>
    <city>苏州</city>
  </location>
  <location>
    <deal_id></deal_id>
    <shop_id>6D04176635A144730D3A764F02B996A6</shop_id>
    <address>江苏省苏州市景德路73号</address>
    <latitude>31.309711421151</latitude>
    <longitude>120.61792478839</longitude>
    <campus>华家池</campus>
    <city>苏州</city>
  </location>
  <location>
    <deal_id></deal_id>
    <shop_id>662EA8B497D432C2</shop_id>
    <address>下城区凤起路555号(近环城西路)</address>
    <latitude>30.263032259715</latitude>
    <longitude>120.15892028809</longitude>
    <campus>西溪</campus>
    <city>杭州</city>
  </location>
  <location>
    <deal_id></deal_id>
    <shop_id>2A8909B3BA8E7C13</shop_id>
    <address>凯旋路136号  </address>
    <latitude>30.257680892944</latitude>
    <longitude>120.19129943848</longitude>
    <campus>华家池</campus>
    <city>杭州</city>
  </location>
  <location>
    <deal_id></deal_id>
    <shop_id>2751FB6E0917ADD8ED73D444CCDEB0D0</shop_id>
    <address>浙江省杭州市下城区上塘高架出口</address>
    <latitude>30.284233099489</latitude>
    <longitude>120.16993584858</longitude>
    <campus>华家池</campus>
    <city>杭州</city>
  </location>
  <location>
    <deal_id></deal_id>
    <shop_id>3478165DD17DE281</shop_id>
    <address>体育场路453号  </address>
    <latitude>30.269630432129</latitude>
    <longitude>120.15464019775</longitude>
    <campus>西溪</campus>
    <city>杭州</city>
  </location>
  <location>
    <deal_id></deal_id>
    <shop_id>C8EC5ECAC69E2FA1</shop_id>
    <address>杭州体育场路194号  </address>
    <latitude>30.269529342651</latitude>
    <longitude>120.17385101318</longitude>
    <campus>华家池</campus>
    <city>杭州</city>
  </location>
  <location>
    <deal_id></deal_id>
    <shop_id>662EA8B497D432C2</shop_id>
    <address>下城区凤起路555号(近环城西路)</address>
    <latitude>30.263032259715</latitude>
    <longitude>120.15892028809</longitude>
    <campus>西溪</campus>
    <city>杭州</city>
  </location>
  <location>
    <deal_id></deal_id>
    <shop_id>A70D1A5F49316E3F</shop_id>
    <address>嘉禾路78号(近莲前西路)  </address>
    <latitude>24.475900650024</latitude>
    <longitude>118.1211013794</longitude>
    <campus>之江</campus>
    <city>厦门</city>
  </location>
  <location>
    <deal_id></deal_id>
    <shop_id>21747566F12729B2C24CF87C02EC5CC0</shop_id>
    <address>苏州平江区平河路505号</address>
    <latitude>31.313907716622</latitude>
    <longitude>120.62638138773</longitude>
    <campus>华家池</campus>
    <city>苏州</city>
  </location>
  <location>
    <deal_id></deal_id>
    <shop_id>B5A11B2CEDB874FB85AFD85A7E4A5794</shop_id>
    <address>江苏省苏州市平江区养育巷</address>
    <latitude>31.305676327704</latitude>
    <longitude>120.61678378839</longitude>
    <campus>华家池</campus>
    <city>苏州</city>
  </location>
  <location>
    <deal_id></deal_id>
    <shop_id>0B72DC55807F7665</shop_id>
    <address>杭州市下沙高教园区二号大街</address>
    <latitude>30.316377733103</latitude>
    <longitude>120.34160323431</longitude>
    <campus>华家池</campus>
    <city>杭州</city>
  </location>
  <location>
    <deal_id></deal_id>
    <shop_id>F918878229F4E0BC2C52814CAD5AE4DF</shop_id>
    <address>太湖度假区太湖大桥二号桥叶山岛</address>
    <latitude>31.167574</latitude>
    <longitude>120.338906</longitude>
    <campus>紫金港</campus>
    <city>苏州</city>
  </location>
  <location>
    <deal_id></deal_id>
    <shop_id>46D2D27425E8F655</shop_id>
    <address>江干区下沙经济开发区4号大街209号(近9号大街)</address>
    <latitude>30.305960540904</latitude>
    <longitude>120.35548560322</longitude>
    <campus>华家池</campus>
    <city>杭州</city>
  </location>
  <location>
    <deal_id></deal_id>
    <shop_id>27B9C168E126964B69B93D1C7B8AD5AE</shop_id>
    <address>厦门市湖里区妇幼保健院</address>
    <latitude>24.505854425403</latitude>
    <longitude>118.13597281551</longitude>
    <campus>之江</campus>
    <city>厦门</city>
  </location>
  <location>
    <deal_id></deal_id>
    <shop_id>1B8CC3A2EF06C42C10A7FB88E5CEF916</shop_id>
    <address>上海市青浦区沪青平公路6888号东方绿舟内</address>
    <latitude>31.0991164395</latitude>
    <longitude>121.01907596693</longitude>
    <campus>华家池</campus>
    <city>上海</city>
  </location>
  <location>
    <deal_id></deal_id>
    <shop_id>3F90D486201F3C706271AE73E1B3898C</shop_id>
    <address>五星电器石路店</address>
    <latitude>31.310875</latitude>
    <longitude>120.602007</longitude>
    <campus>华家池</campus>
    <city>苏州</city>
  </location>
  <location>
    <deal_id></deal_id>
    <shop_id>97EA3B5E6DCBBC8B81EE3DC6877CD46F</shop_id>
    <address>嘉兴南湖区城东路189号(近人民公园)</address>
    <latitude>30.764599100114</latitude>
    <longitude>120.7640024204</longitude>
    <campus>华家池</campus>
    <city>嘉兴</city>
  </location>
  <location>
    <deal_id></deal_id>
    <shop_id>70E54EA9EF2A99387EE95F7EE4AAF2B0</shop_id>
    <address>浙江省杭州市浣纱路</address>
    <latitude>30.250506276607</latitude>
    <longitude>120.17137884858</longitude>
    <campus>华家池</campus>
    <city>杭州</city>
  </location>
  <location>
    <deal_id></deal_id>
    <shop_id>1D4AA0674AB2F0A7</shop_id>
    <address>彭埠镇兴隆二区103号  </address>
    <latitude>30.288909912109</latitude>
    <longitude>120.2258605957</longitude>
    <campus>华家池</campus>
    <city>杭州</city>
  </location>
  <location>
    <deal_id></deal_id>
    <shop_id>A25822259CF9F67C51097D4286CAEB16</shop_id>
    <address>杭州市中山中路153号</address>
    <latitude>30.252325920982</latitude>
    <longitude>120.19609904858</longitude>
    <campus>华家池</campus>
    <city>杭州</city>
  </location>
  <location>
    <deal_id></deal_id>
    <shop_id>F77886758A6D6DAC135A1653356AA5CB</shop_id>
    <address>拱墅区 拱宸桥</address>
    <latitude>30.317798428925</latitude>
    <longitude>120.14187415079</longitude>
    <campus>西溪</campus>
    <city>杭州</city>
  </location>
  <location>
    <deal_id></deal_id>
    <shop_id>3E88614669DE27848DEE053B1F5E1BA3</shop_id>
    <address>杭州市上城区东坡路52号</address>
    <latitude>30.2559801</latitude>
    <longitude>120.1628375</longitude>
    <campus>华家池</campus>
    <city>杭州</city>
  </location>
  <location>
    <deal_id></deal_id>
    <shop_id>642DFB980BC915</shop_id>
    <address>西湖文化广场16号，环球金融中心一号。</address>
    <latitude>30.276245804536</latitude>
    <longitude>120.16507134858</longitude>
    <campus>华家池</campus>
    <city>杭州</city>
  </location>
  <location>
    <deal_id></deal_id>
    <shop_id>BF11DBD4616A810C</shop_id>
    <address>建国南路280号(近火车站)  </address>
    <latitude>30.24361038208</latitude>
    <longitude>120.17919921875</longitude>
    <campus>华家池</campus>
    <city>杭州</city>
  </location>
  <location>
    <deal_id></deal_id>
    <shop_id>5D94C82700A687</shop_id>
    <address>东洲岛</address>
    <latitude>30.082719522068</latitude>
    <longitude>120.06220578972</longitude>
    <campus>之江</campus>
    <city>杭州</city>
  </location>
  <location>
    <deal_id></deal_id>
    <shop_id>A462F1C193D949</shop_id>
    <address>苏州市平江区观前街碧凤坊64号4d电影店</address>
    <latitude>31.310727444682</latitude>
    <longitude>120.62581738839</longitude>
    <campus>华家池</campus>
    <city>苏州</city>
  </location>
  <location>
    <deal_id></deal_id>
    <shop_id>3478165DD17DE281</shop_id>
    <address>体育场路453号  </address>
    <latitude>30.269630432129</latitude>
    <longitude>120.15464019775</longitude>
    <campus>西溪</campus>
    <city>杭州</city>
  </location>
  <location>
    <deal_id></deal_id>
    <shop_id>A543424AA41527FA</shop_id>
    <address>嘉兴南湖区南溪路</address>
    <latitude>30.753148907746</latitude>
    <longitude>120.76044149731</longitude>
    <campus>华家池</campus>
    <city>嘉兴</city>
  </location>
  <location>
    <deal_id></deal_id>
    <shop_id>C2443055A8C9F3C86BAD3182E9E22445</shop_id>
    <address>香蜜湖世纪中心店</address>
    <latitude>22.548409512853</latitude>
    <longitude>114.04263654435</longitude>
    <campus>之江</campus>
    <city>深圳</city>
  </location>
  <location>
    <deal_id></deal_id>
    <shop_id>221142327C765D7D075762EB76BAB29C</shop_id>
    <address>浙江省嘉兴市平湖市南湾路</address>
    <latitude>30.608120420718</latitude>
    <longitude>121.12770675532</longitude>
    <campus>华家池</campus>
    <city>嘉兴</city>
  </location>
  <location>
    <deal_id></deal_id>
    <shop_id>70E54EA9EF2A99387EE95F7EE4AAF2B0</shop_id>
    <address>浙江省杭州市浣纱路</address>
    <latitude>30.250506276607</latitude>
    <longitude>120.17137884858</longitude>
    <campus>华家池</campus>
    <city>杭州</city>
  </location>
  <location>
    <deal_id></deal_id>
    <shop_id>343807E27F433A7071594DBE7C33BA3D</shop_id>
    <address>杭州上城区青年路27号</address>
    <latitude>30.249513944595</latitude>
    <longitude>120.16805486347</longitude>
    <campus>华家池</campus>
    <city>杭州</city>
  </location>
  <location>
    <deal_id></deal_id>
    <shop_id>343807E27F433A7071594DBE7C33BA3D</shop_id>
    <address>杭州上城区青年路27号</address>
    <latitude>30.249513944595</latitude>
    <longitude>120.16805486347</longitude>
    <campus>华家池</campus>
    <city>杭州</city>
  </location>
  <location>
    <deal_id></deal_id>
    <shop_id>BC919D23A9F32C0B9183AB5A8F748EBD</shop_id>
    <address>西湖区龙井路1号</address>
    <latitude>30.247019292971</latitude>
    <longitude>120.12282716071</longitude>
    <campus>玉泉</campus>
    <city>杭州</city>
  </location>
  <location>
    <deal_id></deal_id>
    <shop_id>C4C514C713890C3A</shop_id>
    <address>杭州淳安县千岛湖镇南山开发路1号(近千岛湖广场)</address>
    <latitude>29.599031432931</latitude>
    <longitude>119.04682315039</longitude>
    <campus>之江</campus>
    <city>杭州</city>
  </location>
  <location>
    <deal_id></deal_id>
    <shop_id>85A0F55D6C000533</shop_id>
    <address>管家桥34号(华侨路汉中路间)  </address>
    <latitude>32.044811248779</latitude>
    <longitude>118.7830581665</longitude>
    <campus>紫金港</campus>
    <city>南京</city>
  </location>
  <location>
    <deal_id></deal_id>
    <shop_id>DAE21C9868E9BD55A0944C5CC914D274</shop_id>
    <address>浙江省杭州市下城区环城北路</address>
    <latitude>30.274624864978</latitude>
    <longitude>120.17958884858</longitude>
    <campus>华家池</campus>
    <city>杭州</city>
  </location>
  <location>
    <deal_id></deal_id>
    <shop_id>F3CCD4223A94A8F0C2AEF664E139DF81</shop_id>
    <address>杭州市余杭区临平东湖南路保元泽第一号楼</address>
    <latitude>30.407848122596</latitude>
    <longitude>120.30929501789</longitude>
    <campus>华家池</campus>
    <city>杭州</city>
  </location>
  <location>
    <deal_id></deal_id>
    <shop_id>F241D3CF284D1A67F507BACC9D211269</shop_id>
    <address>浙江省杭州市西湖区体育场路</address>
    <latitude>30.26880072286</latitude>
    <longitude>120.15800484858</longitude>
    <campus>西溪</campus>
    <city>杭州</city>
  </location>
  <location>
    <deal_id></deal_id>
    <shop_id>648D9CF2E8394521BC975D4DBA4901CE</shop_id>
    <address>杭州市朝晖七区12号</address>
    <latitude>30.285021618737</latitude>
    <longitude>120.16224774858</longitude>
    <campus>华家池</campus>
    <city>杭州</city>
  </location>
  <location>
    <deal_id></deal_id>
    <shop_id>8724FFB9CE199A6F</shop_id>
    <address>莫干山路691号  </address>
    <latitude>30.2956199646</latitude>
    <longitude>120.14010620117</longitude>
    <campus>西溪</campus>
    <city>杭州</city>
  </location>
  <location>
    <deal_id></deal_id>
    <shop_id>5555B20A8B7F0A7059D81DDFBFBEBF38</shop_id>
    <address>浙江省杭州市市心北路</address>
    <latitude>30.216360267107</latitude>
    <longitude>120.27044292464</longitude>
    <campus>华家池</campus>
    <city>杭州</city>
  </location>
  <location>
    <deal_id></deal_id>
    <shop_id>3FADE82229D518C5</shop_id>
    <address>北京西城区西单北大街131号(近君太百货)</address>
    <latitude>39.910920950364</latitude>
    <longitude>116.37355064112</longitude>
    <campus>紫金港</campus>
    <city>北京</city>
  </location>
  <location>
    <deal_id></deal_id>
    <shop_id>6354772644568116A15A9665EFC9338D</shop_id>
    <address>杭州市拱墅区湖墅南路米市巷11号</address>
    <latitude>30.286800861756</latitude>
    <longitude>120.15024288297</longitude>
    <campus>西溪</campus>
    <city>杭州</city>
  </location>
  <location>
    <deal_id></deal_id>
    <shop_id>4674CEB24B547E886A574D1FAD9258DD</shop_id>
    <address>萧山区临浦镇</address>
    <latitude>30.04511</latitude>
    <longitude>120.248962</longitude>
    <campus>之江</campus>
    <city>杭州</city>
  </location>
  <location>
    <deal_id></deal_id>
    <shop_id>2C23EF9D0DAB1D</shop_id>
    <address>下城区绍兴路店</address>
    <latitude>30.301142512365</latitude>
    <longitude>120.16529584858</longitude>
    <campus>华家池</campus>
    <city>杭州</city>
  </location>
  <location>
    <deal_id></deal_id>
    <shop_id>70E54EA9EF2A99387EE95F7EE4AAF2B0</shop_id>
    <address>浙江省杭州市浣纱路</address>
    <latitude>30.250506276607</latitude>
    <longitude>120.17137884858</longitude>
    <campus>华家池</campus>
    <city>杭州</city>
  </location>
  <location>
    <deal_id></deal_id>
    <shop_id>37046F81C833CF8539D15551541DBDF3</shop_id>
    <address>杭州市余杭区余杭镇禹航路908号</address>
    <latitude>30.27158</latitude>
    <longitude>119.94265</longitude>
    <campus>紫金港</campus>
    <city>杭州</city>
  </location>
  <location>
    <deal_id></deal_id>
    <shop_id>AD54CAA0557DAB9AF1715C86AF25E460</shop_id>
    <address>海淀区知春路甲48号</address>
    <latitude>39.975047607818</latitude>
    <longitude>116.33839101714</longitude>
    <campus>紫金港</campus>
    <city>北京</city>
  </location>
  <location>
    <deal_id></deal_id>
    <shop_id>25665FCC32BF1C7AB730C413B553B619</shop_id>
    <address>浙江省杭州市上城区中河南路</address>
    <latitude>30.22342634627</latitude>
    <longitude>120.17559011974</longitude>
    <campus>华家池</campus>
    <city>杭州</city>
  </location>
  <location>
    <deal_id></deal_id>
    <shop_id>41C0F5AE7D182023BEB1E59D14EF6A81</shop_id>
    <address>上海外马路80号</address>
    <latitude>31.217884</latitude>
    <longitude>121.507173</longitude>
    <campus>华家池</campus>
    <city>上海</city>
  </location>
  <location>
    <deal_id></deal_id>
    <shop_id>12E61BB200F42106</shop_id>
    <address>江南大道3788号  </address>
    <latitude>30.184059143066</latitude>
    <longitude>120.1628036499</longitude>
    <campus>之江</campus>
    <city>杭州</city>
  </location>
  <location>
    <deal_id></deal_id>
    <shop_id>FEF6CFD9CDE644094A401C45E88D33E0</shop_id>
    <address>南京汤山东湖丽岛</address>
    <latitude>32.057898</latitude>
    <longitude>119.072421</longitude>
    <campus>紫金港</campus>
    <city>南京</city>
  </location>
  <location>
    <deal_id></deal_id>
    <shop_id>5573110ABF50C4E5</shop_id>
    <address>杭州上城区庆春路217号(延安路解百天桥西南角)</address>
    <latitude>30.257907369606</latitude>
    <longitude>120.16333007813</longitude>
    <campus>华家池</campus>
    <city>杭州</city>
  </location>
  <location>
    <deal_id></deal_id>
    <shop_id>4F927DC93D8C684626AAA9B1C8E71310</shop_id>
    <address>杭州西湖区满觉陇路2号(近虎跑路)</address>
    <latitude>30.215806112679</latitude>
    <longitude>120.13443743991</longitude>
    <campus>之江</campus>
    <city>杭州</city>
  </location>
  <location>
    <deal_id></deal_id>
    <shop_id>477FAF9B9D2AE8BF228EFC07C060CA49</shop_id>
    <address>浙江省杭州市西湖区丰潭路</address>
    <latitude>30.291507970453</latitude>
    <longitude>120.10682388297</longitude>
    <campus>紫金港</campus>
    <city>杭州</city>
  </location>
  <location>
    <deal_id></deal_id>
    <shop_id>78371A576F618FA1</shop_id>
    <address>大关路126号  </address>
    <latitude>30.304529190064</latitude>
    <longitude>120.1449508667</longitude>
    <campus>西溪</campus>
    <city>杭州</city>
  </location>
  <location>
    <deal_id></deal_id>
    <shop_id>78371A576F618FA1</shop_id>
    <address>大关路126号  </address>
    <latitude>30.304529190064</latitude>
    <longitude>120.1449508667</longitude>
    <campus>西溪</campus>
    <city>杭州</city>
  </location>
  <location>
    <deal_id></deal_id>
    <shop_id>E16CA2A8C087E22D3E2930F975227F89</shop_id>
    <address>杭州市西湖区古墩路5号</address>
    <latitude>30.261096268454</latitude>
    <longitude>120.10105988297</longitude>
    <campus>玉泉</campus>
    <city>杭州</city>
  </location>
  <location>
    <deal_id></deal_id>
    <shop_id>46DDE5EE847C306F446B822629D7F339</shop_id>
    <address>杭州市学院路122号旁边海关路5号内</address>
    <latitude>30.27961</latitude>
    <longitude>120.131325</longitude>
    <campus>西溪</campus>
    <city>杭州</city>
  </location>
  <location>
    <deal_id></deal_id>
    <shop_id>57BE60CECC1CCA66A54FB40A4DE3A56F</shop_id>
    <address>浙江省杭州市西湖区留下大街1号</address>
    <latitude>30.239100126729</latitude>
    <longitude>120.05613415414</longitude>
    <campus>玉泉</campus>
    <city>杭州</city>
  </location>
  <location>
    <deal_id></deal_id>
    <shop_id>6606265AF886A20A</shop_id>
    <address>庆春路87号</address>
    <latitude>30.257727141035</latitude>
    <longitude>120.17702573538</longitude>
    <campus>华家池</campus>
    <city>杭州</city>
  </location>
  <location>
    <deal_id></deal_id>
    <shop_id>643EA1FDB149C6D22706294EE0BED71E</shop_id>
    <address>杭州上城区清吟街123号</address>
    <latitude>30.253742811852</latitude>
    <longitude>120.17378466626</longitude>
    <campus>华家池</campus>
    <city>杭州</city>
  </location>
  <location>
    <deal_id></deal_id>
    <shop_id>B59EBC6CC490800803249AD8A9FD35FE</shop_id>
    <address>绍兴市柯桥街道山阴路785号</address>
    <latitude>30.079992294311</latitude>
    <longitude>120.47990417481</longitude>
    <campus>华家池</campus>
    <city>绍兴</city>
  </location>
  <location>
    <deal_id></deal_id>
    <shop_id>F1C6470E0BB8FECE01D3BF700F48D86B</shop_id>
    <address>浙江省杭州市三台山29号</address>
    <latitude>30.236065056608</latitude>
    <longitude>120.13274915414</longitude>
    <campus>玉泉</campus>
    <city>杭州</city>
  </location>
  <location>
    <deal_id></deal_id>
    <shop_id>648D9CF2E8394521BC975D4DBA4901CE</shop_id>
    <address>杭州市朝晖七区12号</address>
    <latitude>30.285021618737</latitude>
    <longitude>120.16224774858</longitude>
    <campus>华家池</campus>
    <city>杭州</city>
  </location>
  <location>
    <deal_id></deal_id>
    <shop_id>8857503976772803342</shop_id>
    <address>上城区吴山广场</address>
    <latitude>30.239956587413</latitude>
    <longitude>120.16722002456</longitude>
    <campus>华家池</campus>
    <city>杭州</city>
  </location>
  <location>
    <deal_id></deal_id>
    <shop_id>41D43B5C13E914F9</shop_id>
    <address>浙江省杭州市莫干山路252号(近文一路)  </address>
    <latitude>30.28971</latitude>
    <longitude>120.1452</longitude>
    <campus>西溪</campus>
    <city>杭州</city>
  </location>
  <location>
    <deal_id></deal_id>
    <shop_id>605FF8F7A9D816</shop_id>
    <address>望江东路333号</address>
    <latitude>30.228047459314</latitude>
    <longitude>120.19130911974</longitude>
    <campus>华家池</campus>
    <city>杭州</city>
  </location>
  <location>
    <deal_id></deal_id>
    <shop_id>27C6D90C2C25127CAD9B4CC413987396</shop_id>
    <address>浙江省杭州市江干区凤起东路</address>
    <latitude>30.26269757396</latitude>
    <longitude>120.20696084858</longitude>
    <campus>华家池</campus>
    <city>杭州</city>
  </location>
  <location>
    <deal_id></deal_id>
    <shop_id>9A3E1DCF16B16503B6353A47B559B16D</shop_id>
    <address>杭州古墩路656号紫金港大厦3楼</address>
    <latitude>30.30567599448</latitude>
    <longitude>120.09766173363</longitude>
    <campus>紫金港</campus>
    <city>杭州</city>
  </location>
  <location>
    <deal_id></deal_id>
    <shop_id>C974404FB22803</shop_id>
    <address>江干区秋涛北路38号</address>
    <latitude>30.251540301823</latitude>
    <longitude>120.19927484858</longitude>
    <campus>华家池</campus>
    <city>杭州</city>
  </location>
  <location>
    <deal_id></deal_id>
    <shop_id>9BCA9EA7307568861033EE81B380433C</shop_id>
    <address>滨文路555号</address>
    <latitude>30.171342</latitude>
    <longitude>120.151365</longitude>
    <campus>之江</campus>
    <city>杭州</city>
  </location>
  <location>
    <deal_id></deal_id>
    <shop_id>C974404FB22803</shop_id>
    <address>江干区秋涛北路38号</address>
    <latitude>30.251540301823</latitude>
    <longitude>120.19927484858</longitude>
    <campus>华家池</campus>
    <city>杭州</city>
  </location>
  <location>
    <deal_id></deal_id>
    <shop_id>DAE21C9868E9BD55A0944C5CC914D274</shop_id>
    <address>浙江省杭州市下城区环城北路</address>
    <latitude>30.274624864978</latitude>
    <longitude>120.17958884858</longitude>
    <campus>华家池</campus>
    <city>杭州</city>
  </location>
  <location>
    <deal_id></deal_id>
    <shop_id>07A1E309C98C03794C2E8EE8BCD387AE</shop_id>
    <address>浙江省杭州市江干区艮山西路章家坝西区237号</address>
    <latitude>30.271862797576</latitude>
    <longitude>120.20632784858</longitude>
    <campus>华家池</campus>
    <city>杭州</city>
  </location>
  <location>
    <deal_id></deal_id>
    <shop_id>6DAF7FE818E997</shop_id>
    <address>杭州市下城区凤起路247号</address>
    <latitude>30.263213286541</latitude>
    <longitude>120.17400074858</longitude>
    <campus>华家池</campus>
    <city>杭州</city>
  </location>
  <location>
    <deal_id></deal_id>
    <shop_id>07A1E309C98C03794C2E8EE8BCD387AE</shop_id>
    <address>浙江省杭州市江干区艮山西路章家坝西区237号</address>
    <latitude>30.271862797576</latitude>
    <longitude>120.20632784858</longitude>
    <campus>华家池</campus>
    <city>杭州</city>
  </location>
  <location>
    <deal_id></deal_id>
    <shop_id>A25822259CF9F67C51097D4286CAEB16</shop_id>
    <address>杭州市中山中路153号</address>
    <latitude>30.252325920982</latitude>
    <longitude>120.19609904858</longitude>
    <campus>华家池</campus>
    <city>杭州</city>
  </location>
  <location>
    <deal_id></deal_id>
    <shop_id>A91F74EB66154C</shop_id>
    <address>杭州上城区建国中路36号(章家桥) 二中分校</address>
    <latitude>30.249170434615</latitude>
    <longitude>120.18051779913</longitude>
    <campus>华家池</campus>
    <city>杭州</city>
  </location>
  <location>
    <deal_id></deal_id>
    <shop_id>196F4743FFAC873E</shop_id>
    <address>杭州建国北路游泳巷78号  </address>
    <latitude>30.26328086853</latitude>
    <longitude>120.18212890625</longitude>
    <campus>华家池</campus>
    <city>杭州</city>
  </location>
  <location>
    <deal_id></deal_id>
    <shop_id>8AB935821AE7A36B7AFF400C105D6CFF</shop_id>
    <address>杭州西湖区黄龙路1号黄龙体育中心</address>
    <latitude>30.268083516427</latitude>
    <longitude>120.13570746033</longitude>
    <campus>西溪</campus>
    <city>杭州</city>
  </location>
  <location>
    <deal_id></deal_id>
    <shop_id>B4CD6C6407EFC92E4E087F12CBE4B8B8</shop_id>
    <address>南京市建邺区水西门大街153-9</address>
    <latitude>32.036244</latitude>
    <longitude>118.744878</longitude>
    <campus>紫金港</campus>
    <city>南京</city>
  </location>
  <location>
    <deal_id></deal_id>
    <shop_id>C465F8E71FE3FC91042C8A8ABB07213E</shop_id>
    <address>杭州市登云路</address>
    <latitude>30.309180378682</latitude>
    <longitude>120.13274938297</longitude>
    <campus>西溪</campus>
    <city>杭州</city>
  </location>
  <location>
    <deal_id></deal_id>
    <shop_id>8A069F4FFFED7DB77145A2C97B0394BE</shop_id>
    <address>江宁区汤山镇温泉路8号</address>
    <latitude>32.0508599</latitude>
    <longitude>119.064192</longitude>
    <campus>紫金港</campus>
    <city>南京</city>
  </location>
  <location>
    <deal_id></deal_id>
    <shop_id>37046F81C833CF8539D15551541DBDF3</shop_id>
    <address>杭州市余杭区余杭镇禹航路908号</address>
    <latitude>30.27158</latitude>
    <longitude>119.94265</longitude>
    <campus>紫金港</campus>
    <city>杭州</city>
  </location>
  <location>
    <deal_id></deal_id>
    <shop_id>F593CFD47D8912327D30EE204EC19A4F</shop_id>
    <address>文晖路108号</address>
    <latitude>30.280015945435</latitude>
    <longitude>120.17980194092</longitude>
    <campus>华家池</campus>
    <city>杭州</city>
  </location>
  <location>
    <deal_id></deal_id>
    <shop_id>4493369C37254B03822F638722D464FB</shop_id>
    <address>浙江省杭州市上城区平海路25号</address>
    <latitude>30.251467300043</latitude>
    <longitude>120.16684684858</longitude>
    <campus>华家池</campus>
    <city>杭州</city>
  </location>
  <location>
    <deal_id></deal_id>
    <shop_id>B4D5DD45D7EDB5A2</shop_id>
    <address>岳王路1号(近仁和路)  </address>
    <latitude>30.256540298462</latitude>
    <longitude>120.1692276001</longitude>
    <campus>华家池</campus>
    <city>杭州</city>
  </location>
  <location>
    <deal_id></deal_id>
    <shop_id>4B4DA4B1CE8660C0</shop_id>
    <address>扬子江大道万景园路8号(绿博园附近)  </address>
    <latitude>32.011081695557</latitude>
    <longitude>118.70970916748</longitude>
    <campus>紫金港</campus>
    <city>南京</city>
  </location>
  <location>
    <deal_id></deal_id>
    <shop_id>6606265AF886A20A</shop_id>
    <address>庆春路87号</address>
    <latitude>30.257727141035</latitude>
    <longitude>120.17702573538</longitude>
    <campus>华家池</campus>
    <city>杭州</city>
  </location>
  <location>
    <deal_id></deal_id>
    <shop_id>8AFFF11CF3518F8ACB64D0946E6573C8</shop_id>
    <address>浙江省杭州市萧山区金城路</address>
    <latitude>30.183823467195</latitude>
    <longitude>120.26526292464</longitude>
    <campus>华家池</campus>
    <city>杭州</city>
  </location>
  <location>
    <deal_id></deal_id>
    <shop_id>AD1E9827038C495BA64AEA1AEA9D35E3</shop_id>
    <address>杭州中山南路鼓楼至严官巷</address>
    <latitude>30.230728149414</latitude>
    <longitude>120.17024993897</longitude>
    <campus>华家池</campus>
    <city>杭州</city>
  </location>
  <location>
    <deal_id></deal_id>
    <shop_id>A25822259CF9F67C51097D4286CAEB16</shop_id>
    <address>杭州市中山中路153号</address>
    <latitude>30.252325920982</latitude>
    <longitude>120.19609904858</longitude>
    <campus>华家池</campus>
    <city>杭州</city>
  </location>
  <location>
    <deal_id></deal_id>
    <shop_id>F77886758A6D6DAC135A1653356AA5CB</shop_id>
    <address>拱墅区 拱宸桥</address>
    <latitude>30.317798428925</latitude>
    <longitude>120.14187415079</longitude>
    <campus>西溪</campus>
    <city>杭州</city>
  </location>
  <location>
    <deal_id></deal_id>
    <shop_id>2C23EF9D0DAB1D</shop_id>
    <address>下城区绍兴路店</address>
    <latitude>30.301142512365</latitude>
    <longitude>120.16529584858</longitude>
    <campus>华家池</campus>
    <city>杭州</city>
  </location>
  <location>
    <deal_id></deal_id>
    <shop_id>DD96D59326F3010C06B3295CAADB3C10</shop_id>
    <address>浙江省杭州市萧山区站前路1号 杭州火车南站(原萧山火车站)</address>
    <latitude>30.1723451174</latitude>
    <longitude>120.294305518</longitude>
    <campus>华家池</campus>
    <city>杭州</city>
  </location>
  <location>
    <deal_id></deal_id>
    <shop_id>096B7EC0ABBFE8D91604BEB49856BCA7</shop_id>
    <address>浙江省杭州市下城区建国北路</address>
    <latitude>30.264417615921</latitude>
    <longitude>120.18460584858</longitude>
    <campus>华家池</campus>
    <city>杭州</city>
  </location>
  <location>
    <deal_id></deal_id>
    <shop_id>41D43B5C13E914F9</shop_id>
    <address>浙江省杭州市莫干山路252号(近文一路)  </address>
    <latitude>30.28971</latitude>
    <longitude>120.1452</longitude>
    <campus>西溪</campus>
    <city>杭州</city>
  </location>
  <location>
    <deal_id></deal_id>
    <shop_id>EDB4BDDC3EF815DACC5D0A578A7F32EF</shop_id>
    <address>绍兴市越城区城南大道900号</address>
    <latitude>29.980206</latitude>
    <longitude>120.571142</longitude>
    <campus>华家池</campus>
    <city>绍兴</city>
  </location>
  <location>
    <deal_id></deal_id>
    <shop_id>6DF2AD57E9252CBF9B7D5668A92CA529</shop_id>
    <address>上城区环城东路1号(西湖大道东首)  沪杭高铁 杭州站</address>
    <latitude>30.243398226274</latitude>
    <longitude>120.18280633626</longitude>
    <campus>华家池</campus>
    <city>杭州</city>
  </location>
  <location>
    <deal_id></deal_id>
    <shop_id>464E53B8CE02DBB191293E7A0803DB80</shop_id>
    <address>浙江省杭州市上城区清泰街</address>
    <latitude>30.245229879773</latitude>
    <longitude>120.18673911974</longitude>
    <campus>华家池</campus>
    <city>杭州</city>
  </location>
  <location>
    <deal_id></deal_id>
    <shop_id>23C8FD9041452F68</shop_id>
    <address>萧山区市心中路325号  </address>
    <latitude>30.174560546875</latitude>
    <longitude>120.26696777344</longitude>
    <campus>华家池</campus>
    <city>杭州</city>
  </location>
  <location>
    <deal_id></deal_id>
    <shop_id>EEF45B2710B0499B</shop_id>
    <address>凤起路172号  </address>
    <latitude>30.264499664307</latitude>
    <longitude>120.17474365234</longitude>
    <campus>华家池</campus>
    <city>杭州</city>
  </location>
  <location>
    <deal_id></deal_id>
    <shop_id>DD96D59326F3010C06B3295CAADB3C10</shop_id>
    <address>浙江省杭州市萧山区站前路1号 杭州火车南站(原萧山火车站)</address>
    <latitude>30.1723451174</latitude>
    <longitude>120.294305518</longitude>
    <campus>华家池</campus>
    <city>杭州</city>
  </location>
  <location>
    <deal_id></deal_id>
    <shop_id>55A84C6F37AFDDA2</shop_id>
    <address>中河北路3号(近庆春路)  </address>
    <latitude>30.258529663086</latitude>
    <longitude>120.17160797119</longitude>
    <campus>华家池</campus>
    <city>杭州</city>
  </location>
  <location>
    <deal_id></deal_id>
    <shop_id>2736E206994ECB705E9DD2399B79E2EC</shop_id>
    <address>杭州上城区延安路开元路口南(近家乐福)</address>
    <latitude>30.247091810719</latitude>
    <longitude>120.16447233021</longitude>
    <campus>华家池</campus>
    <city>杭州</city>
  </location>
  <location>
    <deal_id></deal_id>
    <shop_id>7A74CDC4D90AAE</shop_id>
    <address>嘉兴南湖区少年路88号</address>
    <latitude>30.763911</latitude>
    <longitude>120.751082</longitude>
    <campus>华家池</campus>
    <city>嘉兴</city>
  </location>
  <location>
    <deal_id></deal_id>
    <shop_id>FEF6CFD9CDE644094A401C45E88D33E0</shop_id>
    <address>南京汤山东湖丽岛</address>
    <latitude>32.057898</latitude>
    <longitude>119.072421</longitude>
    <campus>紫金港</campus>
    <city>南京</city>
  </location>
  <location>
    <deal_id></deal_id>
    <shop_id>DBC55482A89F84B446517E21B017E4DF</shop_id>
    <address>浙江省杭州市上城区望江路215号</address>
    <latitude>30.239444738184</latitude>
    <longitude>120.17586311974</longitude>
    <campus>华家池</campus>
    <city>杭州</city>
  </location>
  <location>
    <deal_id></deal_id>
    <shop_id>8857503976772803342</shop_id>
    <address>上城区吴山广场</address>
    <latitude>30.239956587413</latitude>
    <longitude>120.16722002456</longitude>
    <campus>华家池</campus>
    <city>杭州</city>
  </location>
  <location>
    <deal_id></deal_id>
    <shop_id>648D9CF2E8394521BC975D4DBA4901CE</shop_id>
    <address>杭州市朝晖七区12号</address>
    <latitude>30.285021618737</latitude>
    <longitude>120.16224774858</longitude>
    <campus>华家池</campus>
    <city>杭州</city>
  </location>
  <location>
    <deal_id></deal_id>
    <shop_id>C4ACC52DC0B32704</shop_id>
    <address>春城路289号  </address>
    <latitude>25.009220123291</latitude>
    <longitude>102.73123168945</longitude>
    <campus>紫金港</campus>
    <city>昆明</city>
  </location>
  <location>
    <deal_id></deal_id>
    <shop_id>9EE2CEBDABCB4D8056BCD778B613997C</shop_id>
    <address>G42沪宁高速</address>
    <latitude>32.060542276853</latitude>
    <longitude>119.03281241516</longitude>
    <campus>紫金港</campus>
    <city>南京</city>
  </location>
  <location>
    <deal_id></deal_id>
    <shop_id>70E54EA9EF2A99387EE95F7EE4AAF2B0</shop_id>
    <address>浙江省杭州市浣纱路</address>
    <latitude>30.250506276607</latitude>
    <longitude>120.17137884858</longitude>
    <campus>华家池</campus>
    <city>杭州</city>
  </location>
  <location>
    <deal_id></deal_id>
    <shop_id>29440797CEEDC6BD6014E36E8C9BD6C7</shop_id>
    <address>杭州市古翠路80号浙江科技产业大厦7层</address>
    <latitude>30.280187</latitude>
    <longitude>120.121673</longitude>
    <campus>西溪</campus>
    <city>杭州</city>
  </location>
  <location>
    <deal_id></deal_id>
    <shop_id>9BCA9EA7307568861033EE81B380433C</shop_id>
    <address>滨文路555号</address>
    <latitude>30.171342</latitude>
    <longitude>120.151365</longitude>
    <campus>之江</campus>
    <city>杭州</city>
  </location>
  <location>
    <deal_id></deal_id>
    <shop_id>18D3E10D31825EA72C13B2E5ED0B5D98</shop_id>
    <address>浙江省嘉兴市秀洲区新秀路江南摩尔地下一层</address>
    <latitude>30.764344435128</latitude>
    <longitude>120.70916171233</longitude>
    <campus>华家池</campus>
    <city>嘉兴</city>
  </location>
  <location>
    <deal_id></deal_id>
    <shop_id>18D3E10D31825EA72C13B2E5ED0B5D98</shop_id>
    <address>浙江省嘉兴市秀洲区新秀路江南摩尔地下一层</address>
    <latitude>30.764344435128</latitude>
    <longitude>120.70916171233</longitude>
    <campus>华家池</campus>
    <city>嘉兴</city>
  </location>
  <location>
    <deal_id></deal_id>
    <shop_id>18D3E10D31825EA72C13B2E5ED0B5D98</shop_id>
    <address>浙江省嘉兴市秀洲区新秀路江南摩尔地下一层</address>
    <latitude>30.764344435128</latitude>
    <longitude>120.70916171233</longitude>
    <campus>华家池</campus>
    <city>嘉兴</city>
  </location>
  <location>
    <deal_id></deal_id>
    <shop_id>E16CA2A8C087E22D3E2930F975227F89</shop_id>
    <address>杭州市西湖区古墩路5号</address>
    <latitude>30.261096268454</latitude>
    <longitude>120.10105988297</longitude>
    <campus>玉泉</campus>
    <city>杭州</city>
  </location>
  <location>
    <deal_id></deal_id>
    <shop_id>A25822259CF9F67C51097D4286CAEB16</shop_id>
    <address>杭州市中山中路153号</address>
    <latitude>30.252325920982</latitude>
    <longitude>120.19609904858</longitude>
    <campus>华家池</campus>
    <city>杭州</city>
  </location>
  <location>
    <deal_id></deal_id>
    <shop_id>4DDC5A2626CA6F32B92215CDFE13E7DF</shop_id>
    <address>杭州市下城区华丰南苑363号</address>
    <latitude>30.339779</latitude>
    <longitude>120.198533</longitude>
    <campus>华家池</campus>
    <city>杭州</city>
  </location>
  <location>
    <deal_id></deal_id>
    <shop_id>CD9BC67918EF237FC4CBAB2B8B28482C</shop_id>
    <address>华庭街A-109号</address>
    <latitude>30.766074855886</latitude>
    <longitude>120.75303983688</longitude>
    <campus>华家池</campus>
    <city>嘉兴</city>
  </location>
  <location>
    <deal_id></deal_id>
    <shop_id>97EA3B5E6DCBBC8B81EE3DC6877CD46F</shop_id>
    <address>嘉兴南湖区城东路189号(近人民公园)</address>
    <latitude>30.764599100114</latitude>
    <longitude>120.7640024204</longitude>
    <campus>华家池</campus>
    <city>嘉兴</city>
  </location>
  <location>
    <deal_id></deal_id>
    <shop_id>7DD7D83DA0C4E8</shop_id>
    <address>嘉兴南湖区梅湾街16号楼,南湖西侧(近禾兴南路)</address>
    <latitude>30.753343941331</latitude>
    <longitude>120.75016279596</longitude>
    <campus>华家池</campus>
    <city>嘉兴</city>
  </location>
  <location>
    <deal_id></deal_id>
    <shop_id>5573110ABF50C4E5</shop_id>
    <address>杭州上城区庆春路217号(延安路解百天桥西南角)</address>
    <latitude>30.257907369606</latitude>
    <longitude>120.16333007813</longitude>
    <campus>华家池</campus>
    <city>杭州</city>
  </location>
  <location>
    <deal_id></deal_id>
    <shop_id>F3CCD4223A94A8F0C2AEF664E139DF81</shop_id>
    <address>杭州市余杭区临平东湖南路保元泽第一号楼</address>
    <latitude>30.407848122596</latitude>
    <longitude>120.30929501789</longitude>
    <campus>华家池</campus>
    <city>杭州</city>
  </location>
  <location>
    <deal_id></deal_id>
    <shop_id>A310BC1EBC9F1EB8D85F0A5FD6B59BAA</shop_id>
    <address>淳安县新安东路185号</address>
    <latitude>29.607655939678</latitude>
    <longitude>119.05933913896</longitude>
    <campus>之江</campus>
    <city>杭州</city>
  </location>
  <location>
    <deal_id></deal_id>
    <shop_id>A310BC1EBC9F1EB8D85F0A5FD6B59BAA</shop_id>
    <address>淳安县新安东路185号</address>
    <latitude>29.607655939678</latitude>
    <longitude>119.05933913896</longitude>
    <campus>之江</campus>
    <city>杭州</city>
  </location>
  <location>
    <deal_id></deal_id>
    <shop_id>B7A52096235369</shop_id>
    <address>杨六堡路18号</address>
    <latitude>30.30053999765</latitude>
    <longitude>120.16873784858</longitude>
    <campus>华家池</campus>
    <city>杭州</city>
  </location>
  <location>
    <deal_id></deal_id>
    <shop_id>4B1CF889AB351857</shop_id>
    <address>襄樊火车站,中原路前进路口</address>
    <latitude>32.057833945297</latitude>
    <longitude>112.15490822436</longitude>
    <campus>紫金港</campus>
    <city>襄阳</city>
  </location>
  <location>
    <deal_id></deal_id>
    <shop_id>E98A10718CBD65D00477EFBC5E0709C2</shop_id>
    <address>杭州市滨江区网商路599号</address>
    <latitude>30.187480926514</latitude>
    <longitude>120.19049072266</longitude>
    <campus>之江</campus>
    <city>杭州</city>
  </location>
  <location>
    <deal_id></deal_id>
    <shop_id>DD949F438D5BF90B</shop_id>
    <address>景德路(近苏州市中医院)  </address>
    <latitude>31.309730529785</latitude>
    <longitude>120.61274719238</longitude>
    <campus>华家池</campus>
    <city>苏州</city>
  </location>
  <location>
    <deal_id></deal_id>
    <shop_id>E1EF9C9C3EF2FEF0</shop_id>
    <address>钱潮路12号  </address>
    <latitude>30.255399703979</latitude>
    <longitude>120.22255706787</longitude>
    <campus>华家池</campus>
    <city>杭州</city>
  </location>
  <location>
    <deal_id></deal_id>
    <shop_id>3DA71F8928098F00</shop_id>
    <address>上塘镇蔡马村113号401  </address>
    <latitude>30.322620391846</latitude>
    <longitude>120.15448760986</longitude>
    <campus>西溪</campus>
    <city>杭州</city>
  </location>
  <location>
    <deal_id></deal_id>
    <shop_id>6DF2AD57E9252CBF9B7D5668A92CA529</shop_id>
    <address>上城区环城东路1号(西湖大道东首)  沪杭高铁 杭州站</address>
    <latitude>30.243398226274</latitude>
    <longitude>120.18280633626</longitude>
    <campus>华家池</campus>
    <city>杭州</city>
  </location>
  <location>
    <deal_id></deal_id>
    <shop_id>D4C863C8FA614F9E68228D17635C01C9</shop_id>
    <address>文晖路1号</address>
    <latitude>30.283507081766</latitude>
    <longitude>120.18076384858</longitude>
    <campus>华家池</campus>
    <city>杭州</city>
  </location>
  <location>
    <deal_id></deal_id>
    <shop_id>4AA99CB6F09885</shop_id>
    <address>上城区之江路复兴南苑</address>
    <latitude>30.208491981048</latitude>
    <longitude>120.16844211974</longitude>
    <campus>之江</campus>
    <city>杭州</city>
  </location>
  <location>
    <deal_id></deal_id>
    <shop_id>AE577839D31E3C</shop_id>
    <address>杭州市江干区九环路6号</address>
    <latitude>30.303093865959</latitude>
    <longitude>120.25788765347</longitude>
    <campus>华家池</campus>
    <city>杭州</city>
  </location>
  <location>
    <deal_id></deal_id>
    <shop_id>AE577839D31E3C</shop_id>
    <address>杭州市江干区九环路6号</address>
    <latitude>30.303093865959</latitude>
    <longitude>120.25788765347</longitude>
    <campus>华家池</campus>
    <city>杭州</city>
  </location>
  <location>
    <deal_id></deal_id>
    <shop_id>464E53B8CE02DBB191293E7A0803DB80</shop_id>
    <address>浙江省杭州市上城区清泰街</address>
    <latitude>30.245229879773</latitude>
    <longitude>120.18673911974</longitude>
    <campus>华家池</campus>
    <city>杭州</city>
  </location>
  <location>
    <deal_id></deal_id>
    <shop_id>AE577839D31E3C</shop_id>
    <address>杭州市江干区九环路6号</address>
    <latitude>30.303093865959</latitude>
    <longitude>120.25788765347</longitude>
    <campus>华家池</campus>
    <city>杭州</city>
  </location>
  <location>
    <deal_id></deal_id>
    <shop_id>5720E978CE73C508826F5667AD56BAD9</shop_id>
    <address>杭州天目山路</address>
    <latitude>30.272707</latitude>
    <longitude>120.151401</longitude>
    <campus>西溪</campus>
    <city>杭州</city>
  </location>
  <location>
    <deal_id></deal_id>
    <shop_id>2432EE16633ADFDD133268337039063C</shop_id>
    <address>古墩路管他几号（文二西路交叉口）</address>
    <latitude>30.275735855102</latitude>
    <longitude>120.09657287598</longitude>
    <campus>玉泉</campus>
    <city>杭州</city>
  </location>
  <location>
    <deal_id></deal_id>
    <shop_id>C0078DC4A160D9B0915767C3B73A3A62</shop_id>
    <address>杭州西湖区玉皇山路74号(近丝绸博物馆)</address>
    <latitude>30.224256635188</latitude>
    <longitude>120.1540297705</longitude>
    <campus>之江</campus>
    <city>杭州</city>
  </location>
  <location>
    <deal_id></deal_id>
    <shop_id>A10D7A2EA6808202FC0491EF06A194C0</shop_id>
    <address>中国杭州市下城区永波街150号</address>
    <latitude>30.341136489724</latitude>
    <longitude>120.18863884858</longitude>
    <campus>华家池</campus>
    <city>杭州</city>
  </location>
  <location>
    <deal_id></deal_id>
    <shop_id>6DAF7FE818E997</shop_id>
    <address>杭州市下城区凤起路247号</address>
    <latitude>30.263213286541</latitude>
    <longitude>120.17400074858</longitude>
    <campus>华家池</campus>
    <city>杭州</city>
  </location>
  <location>
    <deal_id></deal_id>
    <shop_id>B7A52096235369</shop_id>
    <address>杨六堡路18号</address>
    <latitude>30.30053999765</latitude>
    <longitude>120.16873784858</longitude>
    <campus>华家池</campus>
    <city>杭州</city>
  </location>
  <location>
    <deal_id></deal_id>
    <shop_id>8857503976772803342</shop_id>
    <address>上城区吴山广场</address>
    <latitude>30.239956587413</latitude>
    <longitude>120.16722002456</longitude>
    <campus>华家池</campus>
    <city>杭州</city>
  </location>
  <location>
    <deal_id></deal_id>
    <shop_id>8857503976772803342</shop_id>
    <address>上城区吴山广场</address>
    <latitude>30.239956587413</latitude>
    <longitude>120.16722002456</longitude>
    <campus>华家池</campus>
    <city>杭州</city>
  </location>
  <location>
    <deal_id></deal_id>
    <shop_id>48A0D245CBE461FBD735663F007C4EA6</shop_id>
    <address>杭州市玉古路173号中田大厦四楼d座</address>
    <latitude>30.269477461855</latitude>
    <longitude>120.13023588297</longitude>
    <campus>西溪</campus>
    <city>杭州</city>
  </location>
  <location>
    <deal_id></deal_id>
    <shop_id>103477C82DF24346C5205C41F4F49FDD</shop_id>
    <address>杭州市香积寺东路109号</address>
    <latitude>30.306256637277</latitude>
    <longitude>120.18124484858</longitude>
    <campus>华家池</campus>
    <city>杭州</city>
  </location>
  <location>
    <deal_id></deal_id>
    <shop_id>464E53B8CE02DBB191293E7A0803DB80</shop_id>
    <address>浙江省杭州市上城区清泰街</address>
    <latitude>30.245229879773</latitude>
    <longitude>120.18673911974</longitude>
    <campus>华家池</campus>
    <city>杭州</city>
  </location>
  <location>
    <deal_id></deal_id>
    <shop_id>48A0D245CBE461FBD735663F007C4EA6</shop_id>
    <address>杭州市玉古路173号中田大厦四楼d座</address>
    <latitude>30.269477461855</latitude>
    <longitude>120.13023588297</longitude>
    <campus>西溪</campus>
    <city>杭州</city>
  </location>
  <location>
    <deal_id></deal_id>
    <shop_id>D2A35F0B79431606838FA5871FE563E6</shop_id>
    <address>浙江省杭州市西湖区文二路</address>
    <latitude>30.282759768451</latitude>
    <longitude>120.13486888297</longitude>
    <campus>西溪</campus>
    <city>杭州</city>
  </location>
  <location>
    <deal_id></deal_id>
    <shop_id>E63405D3B62015A56AFCA499BD21D390</shop_id>
    <address>深圳市福田区华强北路2009号茂业百货九楼903</address>
    <latitude>22.545504</latitude>
    <longitude>114.086236</longitude>
    <campus>之江</campus>
    <city>深圳</city>
  </location>
  <location>
    <deal_id></deal_id>
    <shop_id>6DAF7FE818E997</shop_id>
    <address>杭州市下城区凤起路247号</address>
    <latitude>30.263213286541</latitude>
    <longitude>120.17400074858</longitude>
    <campus>华家池</campus>
    <city>杭州</city>
  </location>
  <location>
    <deal_id></deal_id>
    <shop_id>509FF2BB47A44050</shop_id>
    <address>杭州平海路124号(近东坡路)  </address>
    <latitude>30.253589630127</latitude>
    <longitude>120.1626663208</longitude>
    <campus>华家池</campus>
    <city>杭州</city>
  </location>
  <location>
    <deal_id></deal_id>
    <shop_id>D455B25F58761D</shop_id>
    <address>苏州广济南路219号9楼</address>
    <latitude>31.3062813417</latitude>
    <longitude>120.600580788</longitude>
    <campus>华家池</campus>
    <city>苏州</city>
  </location>
  <location>
    <deal_id></deal_id>
    <shop_id>509FF2BB47A44050</shop_id>
    <address>杭州平海路124号(近东坡路)  </address>
    <latitude>30.253589630127</latitude>
    <longitude>120.1626663208</longitude>
    <campus>华家池</campus>
    <city>杭州</city>
  </location>
  <location>
    <deal_id></deal_id>
    <shop_id>63D2D8435F858F17E8D45FBC56D7D500</shop_id>
    <address>杭州市学士路48号</address>
    <latitude>30.255719</latitude>
    <longitude>120.163219</longitude>
    <campus>华家池</campus>
    <city>杭州</city>
  </location>
  <location>
    <deal_id></deal_id>
    <shop_id>63D2D8435F858F17E8D45FBC56D7D500</shop_id>
    <address>杭州市学士路48号</address>
    <latitude>30.255719</latitude>
    <longitude>120.163219</longitude>
    <campus>华家池</campus>
    <city>杭州</city>
  </location>
  <location>
    <deal_id></deal_id>
    <shop_id>07A1E309C98C03794C2E8EE8BCD387AE</shop_id>
    <address>浙江省杭州市江干区艮山西路章家坝西区237号</address>
    <latitude>30.271862797576</latitude>
    <longitude>120.20632784858</longitude>
    <campus>华家池</campus>
    <city>杭州</city>
  </location>
  <location>
    <deal_id></deal_id>
    <shop_id>C0560EFF2B60FC51</shop_id>
    <address>杭州市西湖区杨公堤14号</address>
    <latitude>30.244970321655</latitude>
    <longitude>120.13147735596</longitude>
    <campus>玉泉</campus>
    <city>杭州</city>
  </location>
  <location>
    <deal_id></deal_id>
    <shop_id>07F84DAC26F502F1</shop_id>
    <address>香积寺路121号  </address>
    <latitude>30.306159973144</latitude>
    <longitude>120.16716766357</longitude>
    <campus>华家池</campus>
    <city>杭州</city>
  </location>
  <location>
    <deal_id></deal_id>
    <shop_id>07F84DAC26F502F1</shop_id>
    <address>香积寺路121号  </address>
    <latitude>30.306159973144</latitude>
    <longitude>120.16716766357</longitude>
    <campus>华家池</campus>
    <city>杭州</city>
  </location>
  <location>
    <deal_id></deal_id>
    <shop_id>07A1E309C98C03794C2E8EE8BCD387AE</shop_id>
    <address>浙江省杭州市江干区艮山西路章家坝西区237号</address>
    <latitude>30.271862797576</latitude>
    <longitude>120.20632784858</longitude>
    <campus>华家池</campus>
    <city>杭州</city>
  </location>
  <location>
    <deal_id></deal_id>
    <shop_id>584C0DA21EF80C</shop_id>
    <address>杭州南山路148-5号</address>
    <latitude>30.235632344891</latitude>
    <longitude>120.15804901974</longitude>
    <campus>玉泉</campus>
    <city>杭州</city>
  </location>
  <location>
    <deal_id></deal_id>
    <shop_id>584C0DA21EF80C</shop_id>
    <address>杭州南山路148-5号</address>
    <latitude>30.235632344891</latitude>
    <longitude>120.15804901974</longitude>
    <campus>玉泉</campus>
    <city>杭州</city>
  </location>
  <location>
    <deal_id></deal_id>
    <shop_id>F3CCD4223A94A8F0C2AEF664E139DF81</shop_id>
    <address>杭州市余杭区临平东湖南路保元泽第一号楼</address>
    <latitude>30.407848122596</latitude>
    <longitude>120.30929501789</longitude>
    <campus>华家池</campus>
    <city>杭州</city>
  </location>
  <location>
    <deal_id></deal_id>
    <shop_id>C8EC5ECAC69E2FA1</shop_id>
    <address>杭州体育场路194号  </address>
    <latitude>30.269529342651</latitude>
    <longitude>120.17385101318</longitude>
    <campus>华家池</campus>
    <city>杭州</city>
  </location>
  <location>
    <deal_id></deal_id>
    <shop_id>12DC2FA943C17C3300059851DD9E69AF</shop_id>
    <address>拱墅区八丈井东路7号(通信市场旁)</address>
    <latitude>30.300167683825</latitude>
    <longitude>120.15597269692</longitude>
    <campus>西溪</campus>
    <city>杭州</city>
  </location>
  <location>
    <deal_id></deal_id>
    <shop_id>DBC55482A89F84B446517E21B017E4DF</shop_id>
    <address>浙江省杭州市上城区望江路215号</address>
    <latitude>30.239444738184</latitude>
    <longitude>120.17586311974</longitude>
    <campus>华家池</campus>
    <city>杭州</city>
  </location>
  <location>
    <deal_id></deal_id>
    <shop_id>DBC55482A89F84B446517E21B017E4DF</shop_id>
    <address>浙江省杭州市上城区望江路215号</address>
    <latitude>30.239444738184</latitude>
    <longitude>120.17586311974</longitude>
    <campus>华家池</campus>
    <city>杭州</city>
  </location>
  <location>
    <deal_id></deal_id>
    <shop_id>C8EC5ECAC69E2FA1</shop_id>
    <address>杭州体育场路194号  </address>
    <latitude>30.269529342651</latitude>
    <longitude>120.17385101318</longitude>
    <campus>华家池</campus>
    <city>杭州</city>
  </location>
  <location>
    <deal_id></deal_id>
    <shop_id>8ECFAC9525B4FA52</shop_id>
    <address>上城区南山路101-17号(中国美院大厦对面)</address>
    <latitude>30.243389129639</latitude>
    <longitude>120.15982818603</longitude>
    <campus>华家池</campus>
    <city>杭州</city>
  </location>
  <location>
    <deal_id></deal_id>
    <shop_id>F63927298407A099BADC045014099F22</shop_id>
    <address>杭州市丽水路166号</address>
    <latitude>30.312959671021</latitude>
    <longitude>120.13973236084</longitude>
    <campus>西溪</campus>
    <city>杭州</city>
  </location>
  <location>
    <deal_id></deal_id>
    <shop_id>F2D5C00AD7E9BFCAA00FF1607ECAACCF</shop_id>
    <address>杭州西湖区申花路789号</address>
    <latitude>30.3071582</latitude>
    <longitude>120.0973366</longitude>
    <campus>紫金港</campus>
    <city>杭州</city>
  </location>
  <location>
    <deal_id></deal_id>
    <shop_id>F36D3ED4FE1A5D</shop_id>
    <address>牛坞山路26号</address>
    <latitude>29.792040135082</latitude>
    <longitude>119.66592997623</longitude>
    <campus>之江</campus>
    <city>杭州</city>
  </location>
  <location>
    <deal_id></deal_id>
    <shop_id>F36D3ED4FE1A5D</shop_id>
    <address>牛坞山路26号</address>
    <latitude>29.792040135082</latitude>
    <longitude>119.66592997623</longitude>
    <campus>之江</campus>
    <city>杭州</city>
  </location>
  <location>
    <deal_id></deal_id>
    <shop_id>87C7601DFF13D7DBC535E953E538BA9D</shop_id>
    <address>文二西路近古墩路口</address>
    <latitude>30.281363</latitude>
    <longitude>120.098069</longitude>
    <campus>玉泉</campus>
    <city>杭州</city>
  </location>
  <location>
    <deal_id></deal_id>
    <shop_id>87C7601DFF13D7DBC535E953E538BA9D</shop_id>
    <address>文二西路近古墩路口</address>
    <latitude>30.281363</latitude>
    <longitude>120.098069</longitude>
    <campus>玉泉</campus>
    <city>杭州</city>
  </location>
  <location>
    <deal_id></deal_id>
    <shop_id>A10D7A2EA6808202FC0491EF06A194C0</shop_id>
    <address>中国杭州市下城区永波街150号</address>
    <latitude>30.341136489724</latitude>
    <longitude>120.18863884858</longitude>
    <campus>华家池</campus>
    <city>杭州</city>
  </location>
  <location>
    <deal_id></deal_id>
    <shop_id>FF0B84DAB6321DC1</shop_id>
    <address>东新路760号  </address>
    <latitude>30.321329116821</latitude>
    <longitude>120.17334747315</longitude>
    <campus>华家池</campus>
    <city>杭州</city>
  </location>
  <location>
    <deal_id></deal_id>
    <shop_id>07A1E309C98C03794C2E8EE8BCD387AE</shop_id>
    <address>浙江省杭州市江干区艮山西路章家坝西区237号</address>
    <latitude>30.271862797576</latitude>
    <longitude>120.20632784858</longitude>
    <campus>华家池</campus>
    <city>杭州</city>
  </location>
  <location>
    <deal_id></deal_id>
    <shop_id>5555B20A8B7F0A7059D81DDFBFBEBF38</shop_id>
    <address>浙江省杭州市市心北路</address>
    <latitude>30.216360267107</latitude>
    <longitude>120.27044292464</longitude>
    <campus>华家池</campus>
    <city>杭州</city>
  </location>
  <location>
    <deal_id></deal_id>
    <shop_id>7E2D233401F80E2CD0F0481EAE73180A</shop_id>
    <address>杭州下城区武林路体育场路口北侧</address>
    <latitude>30.271021526705</latitude>
    <longitude>120.15785581415</longitude>
    <campus>西溪</campus>
    <city>杭州</city>
  </location>
  <location>
    <deal_id></deal_id>
    <shop_id>916F3A31C717B6CA</shop_id>
    <address>杭州艮山西路71号</address>
    <latitude>30.276500701904</latitude>
    <longitude>120.20503997803</longitude>
    <campus>华家池</campus>
    <city>杭州</city>
  </location>
  <location>
    <deal_id></deal_id>
    <shop_id>8724FFB9CE199A6F</shop_id>
    <address>莫干山路691号  </address>
    <latitude>30.2956199646</latitude>
    <longitude>120.14010620117</longitude>
    <campus>西溪</campus>
    <city>杭州</city>
  </location>
  <location>
    <deal_id></deal_id>
    <shop_id>C6C5CC862443EA8ABFD0280B3AF21DAC</shop_id>
    <address>延安路179号</address>
    <latitude>30.250179290771</latitude>
    <longitude>120.16426086426</longitude>
    <campus>华家池</campus>
    <city>杭州</city>
  </location>
  <location>
    <deal_id></deal_id>
    <shop_id>6DF2AD57E9252CBF9B7D5668A92CA529</shop_id>
    <address>上城区环城东路1号(西湖大道东首)  沪杭高铁 杭州站</address>
    <latitude>30.243398226274</latitude>
    <longitude>120.18280633626</longitude>
    <campus>华家池</campus>
    <city>杭州</city>
  </location>
  <location>
    <deal_id></deal_id>
    <shop_id>B7A52096235369</shop_id>
    <address>杨六堡路18号</address>
    <latitude>30.30053999765</latitude>
    <longitude>120.16873784858</longitude>
    <campus>华家池</campus>
    <city>杭州</city>
  </location>
  <location>
    <deal_id></deal_id>
    <shop_id>DAE21C9868E9BD55A0944C5CC914D274</shop_id>
    <address>浙江省杭州市下城区环城北路</address>
    <latitude>30.274624864978</latitude>
    <longitude>120.17958884858</longitude>
    <campus>华家池</campus>
    <city>杭州</city>
  </location>
  <location>
    <deal_id></deal_id>
    <shop_id>768E95592C10D295864413DE92AEA5B0</shop_id>
    <address>浙江省杭州市拱墅区永和坊</address>
    <latitude>30.326547780075</latitude>
    <longitude>120.14695588297</longitude>
    <campus>西溪</campus>
    <city>杭州</city>
  </location>
  <location>
    <deal_id></deal_id>
    <shop_id>3488A366F1946E8931C0874D7F521F39</shop_id>
    <address>杭州萧山区时代大道边</address>
    <latitude>30.101432760916</latitude>
    <longitude>120.19679485261</longitude>
    <campus>之江</campus>
    <city>杭州</city>
  </location>
  <location>
    <deal_id></deal_id>
    <shop_id>EC954D151603137428C08D1877C2ACED</shop_id>
    <address>浙江省杭州市古墩路1号</address>
    <latitude>30.263914108276</latitude>
    <longitude>120.10158538818</longitude>
    <campus>玉泉</campus>
    <city>杭州</city>
  </location>
  <location>
    <deal_id></deal_id>
    <shop_id>F5998FC269B823E9E7ACABD8315D3644</shop_id>
    <address>杭州市上城区解放路249号</address>
    <latitude>30.250373</latitude>
    <longitude>120.16539</longitude>
    <campus>华家池</campus>
    <city>杭州</city>
  </location>
  <location>
    <deal_id></deal_id>
    <shop_id>3DA71F8928098F00</shop_id>
    <address>上塘镇蔡马村113号401  </address>
    <latitude>30.322620391846</latitude>
    <longitude>120.15448760986</longitude>
    <campus>西溪</campus>
    <city>杭州</city>
  </location>
  <location>
    <deal_id></deal_id>
    <shop_id>E4CD0AD86430D2</shop_id>
    <address>萧山水博大道8号</address>
    <latitude>30.255817605379</latitude>
    <longitude>120.31319945347</longitude>
    <campus>华家池</campus>
    <city>杭州</city>
  </location>
  <location>
    <deal_id></deal_id>
    <shop_id>538776E8E3E0CEDC228C9727113378D6</shop_id>
    <address>杭州萧山区萧绍路江寺路口东侧(近萧山公路段)</address>
    <latitude>30.165002192368</latitude>
    <longitude>120.2731841418</longitude>
    <campus>华家池</campus>
    <city>杭州</city>
  </location>
  <location>
    <deal_id></deal_id>
    <shop_id>A2B76A73AD279F1332C4CE39941731A5</shop_id>
    <address>杭州市西湖區</address>
    <latitude>30.259493</latitude>
    <longitude>120.129796</longitude>
    <campus>玉泉</campus>
    <city>杭州</city>
  </location>
  <location>
    <deal_id></deal_id>
    <shop_id>97C1E6842F2CDD</shop_id>
    <address>上城区定安路1号银泰百货西湖店5F</address>
    <latitude>30.242225606242</latitude>
    <longitude>120.16645511974</longitude>
    <campus>华家池</campus>
    <city>杭州</city>
  </location>
  <location>
    <deal_id></deal_id>
    <shop_id>A2B76A73AD279F1332C4CE39941731A5</shop_id>
    <address>杭州市西湖區</address>
    <latitude>30.259493</latitude>
    <longitude>120.129796</longitude>
    <campus>玉泉</campus>
    <city>杭州</city>
  </location>
  <location>
    <deal_id></deal_id>
    <shop_id>9BCA9EA7307568861033EE81B380433C</shop_id>
    <address>滨文路555号</address>
    <latitude>30.171342</latitude>
    <longitude>120.151365</longitude>
    <campus>之江</campus>
    <city>杭州</city>
  </location>
  <location>
    <deal_id></deal_id>
    <shop_id>F3CCD4223A94A8F0C2AEF664E139DF81</shop_id>
    <address>杭州市余杭区临平东湖南路保元泽第一号楼</address>
    <latitude>30.407848122596</latitude>
    <longitude>120.30929501789</longitude>
    <campus>华家池</campus>
    <city>杭州</city>
  </location>
  <location>
    <deal_id></deal_id>
    <shop_id>DBF4200A6B8BD6</shop_id>
    <address>临安市锦城街道临水路168号</address>
    <latitude>30.236044061076</latitude>
    <longitude>119.72185916274</longitude>
    <campus>紫金港</campus>
    <city>杭州</city>
  </location>
  <location>
    <deal_id></deal_id>
    <shop_id>BE756F73BA3232</shop_id>
    <address>西湖区莲花街</address>
    <latitude>30.270716235881</latitude>
    <longitude>120.10112441229</longitude>
    <campus>玉泉</campus>
    <city>杭州</city>
  </location>
  <location>
    <deal_id></deal_id>
    <shop_id>4AACB6239F27FCE9</shop_id>
    <address>玉皇山莲花峰路37号  </address>
    <latitude>30.22253036499</latitude>
    <longitude>120.15216064453</longitude>
    <campus>之江</campus>
    <city>杭州</city>
  </location>
  <location>
    <deal_id></deal_id>
    <shop_id>EC342FEB8BE127E1AF021770CF1A6D88</shop_id>
    <address>萧山区通惠中路669号(毗邻杭州火车南站)</address>
    <latitude>30.179128</latitude>
    <longitude>120.285208712</longitude>
    <campus>华家池</campus>
    <city>杭州</city>
  </location>
  <location>
    <deal_id></deal_id>
    <shop_id>C8EC5ECAC69E2FA1</shop_id>
    <address>杭州体育场路194号  </address>
    <latitude>30.269529342651</latitude>
    <longitude>120.17385101318</longitude>
    <campus>华家池</campus>
    <city>杭州</city>
  </location>
  <location>
    <deal_id></deal_id>
    <shop_id>A25822259CF9F67C51097D4286CAEB16</shop_id>
    <address>杭州市中山中路153号</address>
    <latitude>30.252325920982</latitude>
    <longitude>120.19609904858</longitude>
    <campus>华家池</campus>
    <city>杭州</city>
  </location>
  <location>
    <deal_id></deal_id>
    <shop_id>6A77C7838AA034A429765DFCA14BBEB9</shop_id>
    <address>浙江省杭州市上城区解放路178号</address>
    <latitude>30.251328296653</latitude>
    <longitude>120.16878984858</longitude>
    <campus>华家池</campus>
    <city>杭州</city>
  </location>
  <location>
    <deal_id></deal_id>
    <shop_id>448F2278177EB49A</shop_id>
    <address>中山中路</address>
    <latitude>30.247859954834</latitude>
    <longitude>120.17077636719</longitude>
    <campus>华家池</campus>
    <city>杭州</city>
  </location>
  <location>
    <deal_id></deal_id>
    <shop_id>274EF2A850D68C0CB135CF48E254CDCE</shop_id>
    <address>浙江省杭州市西湖区文三路256号</address>
    <latitude>30.277270641731</latitude>
    <longitude>120.13037588297</longitude>
    <campus>西溪</campus>
    <city>杭州</city>
  </location>
  <location>
    <deal_id></deal_id>
    <shop_id>AEEDF54F5E49D7C6F9E003958C9D58C1</shop_id>
    <address>杭州市西湖区三墩镇振华路5号</address>
    <latitude>30.315969467163</latitude>
    <longitude>120.0810623169</longitude>
    <campus>紫金港</campus>
    <city>杭州</city>
  </location>
  <location>
    <deal_id></deal_id>
    <shop_id>1D8DB6CB1C91031F</shop_id>
    <address>杭州莫干山路766号</address>
    <latitude>30.316749572754</latitude>
    <longitude>120.11289215088</longitude>
    <campus>紫金港</campus>
    <city>杭州</city>
  </location>
  <location>
    <deal_id></deal_id>
    <shop_id>BD680D4D0D0ED38E</shop_id>
    <address>定淮门大街  </address>
    <latitude>32.061931610107</latitude>
    <longitude>118.73629760742</longitude>
    <campus>紫金港</campus>
    <city>南京</city>
  </location>
  <location>
    <deal_id></deal_id>
    <shop_id>B3EAF330D096320B11F42A2367611559</shop_id>
    <address>浙江省杭州市西湖区西斗门路</address>
    <latitude>30.287450876766</latitude>
    <longitude>120.11756088297</longitude>
    <campus>西溪</campus>
    <city>杭州</city>
  </location>
  <location>
    <deal_id></deal_id>
    <shop_id>3FE1B962ABD440A819B2C81472A8FB01</shop_id>
    <address>杭州市江干区天城路168号</address>
    <latitude>30.284210205078</latitude>
    <longitude>120.18939971924</longitude>
    <campus>华家池</campus>
    <city>杭州</city>
  </location>
  <location>
    <deal_id></deal_id>
    <shop_id>B87FAD8247A0DBC4F2DFD85B595D8EF7</shop_id>
    <address>竞舟路</address>
    <latitude>30.273511654964</latitude>
    <longitude>120.10481738297</longitude>
    <campus>玉泉</campus>
    <city>杭州</city>
  </location>
  <location>
    <deal_id></deal_id>
    <shop_id>496DFC31583A59B69576D67E3C73CBDE</shop_id>
    <address>沈塘桥路19号</address>
    <latitude>30.28122</latitude>
    <longitude>120.151566</longitude>
    <campus>西溪</campus>
    <city>杭州</city>
  </location>
  <location>
    <deal_id></deal_id>
    <shop_id>D2A35F0B79431606838FA5871FE563E6</shop_id>
    <address>浙江省杭州市西湖区文二路</address>
    <latitude>30.282759768451</latitude>
    <longitude>120.13486888297</longitude>
    <campus>西溪</campus>
    <city>杭州</city>
  </location>
  <location>
    <deal_id></deal_id>
    <shop_id>464E53B8CE02DBB191293E7A0803DB80</shop_id>
    <address>浙江省杭州市上城区清泰街</address>
    <latitude>30.245229879773</latitude>
    <longitude>120.18673911974</longitude>
    <campus>华家池</campus>
    <city>杭州</city>
  </location>
  <location>
    <deal_id></deal_id>
    <shop_id>A4240FA37174F204DB74D0D5605FEF10</shop_id>
    <address>黄姑山路</address>
    <latitude>30.27709863776</latitude>
    <longitude>120.13503988297</longitude>
    <campus>西溪</campus>
    <city>杭州</city>
  </location>
  <location>
    <deal_id></deal_id>
    <shop_id>18A48884D8B209</shop_id>
    <address>杭州下城区西文村站酷漫居酒店</address>
    <latitude>30.318385033589</latitude>
    <longitude>120.17765404858</longitude>
    <campus>华家池</campus>
    <city>杭州</city>
  </location>
  <location>
    <deal_id></deal_id>
    <shop_id>FBCA332224FCA3DA67D16EF7DA051513</shop_id>
    <address>杭州市江干区钱潮路</address>
    <latitude>30.258235965126</latitude>
    <longitude>120.21759504858</longitude>
    <campus>华家池</campus>
    <city>杭州</city>
  </location>
  <location>
    <deal_id></deal_id>
    <shop_id>9DE5B70BBDFED65A</shop_id>
    <address>杭州萧山区市心路37号</address>
    <latitude>30.16418819219</latitude>
    <longitude>120.26936049365</longitude>
    <campus>华家池</campus>
    <city>杭州</city>
  </location>
  <location>
    <deal_id></deal_id>
    <shop_id>A2B76A73AD279F1332C4CE39941731A5</shop_id>
    <address>杭州市西湖區</address>
    <latitude>30.259493</latitude>
    <longitude>120.129796</longitude>
    <campus>玉泉</campus>
    <city>杭州</city>
  </location>
  <location>
    <deal_id></deal_id>
    <shop_id>3DA71F8928098F00</shop_id>
    <address>上塘镇蔡马村113号401  </address>
    <latitude>30.322620391846</latitude>
    <longitude>120.15448760986</longitude>
    <campus>西溪</campus>
    <city>杭州</city>
  </location>
  <location>
    <deal_id></deal_id>
    <shop_id>069E4F9F453ABC7D</shop_id>
    <address>文晖路448号  </address>
    <latitude>30.2786693573</latitude>
    <longitude>120.1547164917</longitude>
    <campus>西溪</campus>
    <city>杭州</city>
  </location>
  <location>
    <deal_id></deal_id>
    <shop_id>25D1F1CCEDD7E36C99414EBF965C5C34</shop_id>
    <address>下城区，上塘河以东、重工路以南、绍兴路以北</address>
    <latitude>30.309543</latitude>
    <longitude>120.164176</longitude>
    <campus>华家池</campus>
    <city>杭州</city>
  </location>
  <location>
    <deal_id></deal_id>
    <shop_id>7CBE92D9D4C32577</shop_id>
    <address>金华路34号运河文化广场1号(近运河广场)  </address>
    <latitude>30.318840026856</latitude>
    <longitude>120.14218902588</longitude>
    <campus>西溪</campus>
    <city>杭州</city>
  </location>
  <location>
    <deal_id></deal_id>
    <shop_id>B7A52096235369</shop_id>
    <address>杨六堡路18号</address>
    <latitude>30.30053999765</latitude>
    <longitude>120.16873784858</longitude>
    <campus>华家池</campus>
    <city>杭州</city>
  </location>
  <location>
    <deal_id></deal_id>
    <shop_id>2B6229BAA29F2296304BD95C547715CC</shop_id>
    <address>杭州下城区武林路昌化弄18号(近体育场路)</address>
    <latitude>30.2686763968</latitude>
    <longitude>120.15820339</longitude>
    <campus>西溪</campus>
    <city>杭州</city>
  </location>
  <location>
    <deal_id></deal_id>
    <shop_id>72206AAB288E55E7BFDCD4898DCBCD9E</shop_id>
    <address>体育场路105号</address>
    <latitude>30.269675</latitude>
    <longitude>120.177716</longitude>
    <campus>华家池</campus>
    <city>杭州</city>
  </location>
  <location>
    <deal_id></deal_id>
    <shop_id>662EA8B497D432C2</shop_id>
    <address>下城区凤起路555号(近环城西路)</address>
    <latitude>30.263032259715</latitude>
    <longitude>120.15892028809</longitude>
    <campus>西溪</campus>
    <city>杭州</city>
  </location>
  <location>
    <deal_id></deal_id>
    <shop_id>7A9BE68163AD30C9</shop_id>
    <address>流水西苑张官弄4号103室  </address>
    <latitude>30.279569625854</latitude>
    <longitude>120.18211364746</longitude>
    <campus>华家池</campus>
    <city>杭州</city>
  </location>
  <location>
    <deal_id></deal_id>
    <shop_id>F3CCD4223A94A8F0C2AEF664E139DF81</shop_id>
    <address>杭州市余杭区临平东湖南路保元泽第一号楼</address>
    <latitude>30.407848122596</latitude>
    <longitude>120.30929501789</longitude>
    <campus>华家池</campus>
    <city>杭州</city>
  </location>
  <location>
    <deal_id></deal_id>
    <shop_id>E16CA2A8C087E22D3E2930F975227F89</shop_id>
    <address>杭州市西湖区古墩路5号</address>
    <latitude>30.261096268454</latitude>
    <longitude>120.10105988297</longitude>
    <campus>玉泉</campus>
    <city>杭州</city>
  </location>
  <location>
    <deal_id></deal_id>
    <shop_id>A2B76A73AD279F1332C4CE39941731A5</shop_id>
    <address>杭州市西湖區</address>
    <latitude>30.259493</latitude>
    <longitude>120.129796</longitude>
    <campus>玉泉</campus>
    <city>杭州</city>
  </location>
  <location>
    <deal_id></deal_id>
    <shop_id>7A9BE68163AD30C9</shop_id>
    <address>流水西苑张官弄4号103室  </address>
    <latitude>30.279569625854</latitude>
    <longitude>120.18211364746</longitude>
    <campus>华家池</campus>
    <city>杭州</city>
  </location>
  <location>
    <deal_id></deal_id>
    <shop_id>07F84DAC26F502F1</shop_id>
    <address>香积寺路121号  </address>
    <latitude>30.306159973144</latitude>
    <longitude>120.16716766357</longitude>
    <campus>华家池</campus>
    <city>杭州</city>
  </location>
  <location>
    <deal_id></deal_id>
    <shop_id>1CB132170A2D652D72BE010037548975</shop_id>
    <address>杭州经济开发区学源街学源大厦1195-1197号</address>
    <latitude>30.3187116118</latitude>
    <longitude>120.33536709</longitude>
    <campus>华家池</campus>
    <city>杭州</city>
  </location>
  <location>
    <deal_id></deal_id>
    <shop_id>D1D4A4A64EC209</shop_id>
    <address>莲花街333号莲花广场肯德基西边</address>
    <latitude>30.270273480226</latitude>
    <longitude>120.09918388297</longitude>
    <campus>玉泉</campus>
    <city>杭州</city>
  </location>
  <location>
    <deal_id></deal_id>
    <shop_id>EC0831770475B2F344B5D56602C5C90C</shop_id>
    <address>文三西路</address>
    <latitude>30.274887586723</latitude>
    <longitude>120.11278588297</longitude>
    <campus>玉泉</campus>
    <city>杭州</city>
  </location>
  <location>
    <deal_id></deal_id>
    <shop_id>D4B5E8C13821C573B1E6BE0F79595A25</shop_id>
    <address>下沙金沙大道600号</address>
    <latitude>30.310402845533</latitude>
    <longitude>120.32296165347</longitude>
    <campus>华家池</campus>
    <city>杭州</city>
  </location>
  <location>
    <deal_id></deal_id>
    <shop_id>3FE1B962ABD440A819B2C81472A8FB01</shop_id>
    <address>杭州市江干区天城路168号</address>
    <latitude>30.284210205078</latitude>
    <longitude>120.18939971924</longitude>
    <campus>华家池</campus>
    <city>杭州</city>
  </location>
  <location>
    <deal_id></deal_id>
    <shop_id>3FE1B962ABD440A819B2C81472A8FB01</shop_id>
    <address>杭州市江干区天城路168号</address>
    <latitude>30.284210205078</latitude>
    <longitude>120.18939971924</longitude>
    <campus>华家池</campus>
    <city>杭州</city>
  </location>
  <location>
    <deal_id></deal_id>
    <shop_id>C4ACC52DC0B32704</shop_id>
    <address>春城路289号  </address>
    <latitude>25.009220123291</latitude>
    <longitude>102.73123168945</longitude>
    <campus>紫金港</campus>
    <city>昆明</city>
  </location>
  <location>
    <deal_id></deal_id>
    <shop_id>A4240FA37174F204DB74D0D5605FEF10</shop_id>
    <address>黄姑山路</address>
    <latitude>30.27709863776</latitude>
    <longitude>120.13503988297</longitude>
    <campus>西溪</campus>
    <city>杭州</city>
  </location>
  <location>
    <deal_id></deal_id>
    <shop_id>C4ACC52DC0B32704</shop_id>
    <address>春城路289号  </address>
    <latitude>25.009220123291</latitude>
    <longitude>102.73123168945</longitude>
    <campus>紫金港</campus>
    <city>昆明</city>
  </location>
  <location>
    <deal_id></deal_id>
    <shop_id>6D78E1BF02067A41897E8220DFBEC742</shop_id>
    <address>浙江省杭州市西湖区文二西路西溪湿地蒋村集市慢生活街区</address>
    <latitude>30.274953588246</latitude>
    <longitude>120.07116788297</longitude>
    <campus>紫金港</campus>
    <city>杭州</city>
  </location>
  <location>
    <deal_id></deal_id>
    <shop_id>4E39280546E36CDB111E89E93CC169D2</shop_id>
    <address>钱江新城</address>
    <latitude>30.240297</latitude>
    <longitude>120.212075</longitude>
    <campus>华家池</campus>
    <city>杭州</city>
  </location>
  <location>
    <deal_id></deal_id>
    <shop_id>4E39280546E36CDB111E89E93CC169D2</shop_id>
    <address>钱江新城</address>
    <latitude>30.240297</latitude>
    <longitude>120.212075</longitude>
    <campus>华家池</campus>
    <city>杭州</city>
  </location>
  <location>
    <deal_id></deal_id>
    <shop_id>3DA71F8928098F00</shop_id>
    <address>上塘镇蔡马村113号401  </address>
    <latitude>30.322620391846</latitude>
    <longitude>120.15448760986</longitude>
    <campus>西溪</campus>
    <city>杭州</city>
  </location>
  <location>
    <deal_id></deal_id>
    <shop_id>3DA71F8928098F00</shop_id>
    <address>上塘镇蔡马村113号401  </address>
    <latitude>30.322620391846</latitude>
    <longitude>120.15448760986</longitude>
    <campus>西溪</campus>
    <city>杭州</city>
  </location>
  <location>
    <deal_id></deal_id>
    <shop_id>043C8F9E225A2982</shop_id>
    <address>文三路108号  </address>
    <latitude>30.277639389038</latitude>
    <longitude>120.14431762695</longitude>
    <campus>西溪</campus>
    <city>杭州</city>
  </location>
  <location>
    <deal_id></deal_id>
    <shop_id>D3C2301F9DB2BBDA033086E2625C6F16</shop_id>
    <address>杭州市文一西路</address>
    <latitude>30.287047</latitude>
    <longitude>120.092756</longitude>
    <campus>紫金港</campus>
    <city>杭州</city>
  </location>
  <location>
    <deal_id></deal_id>
    <shop_id>464E53B8CE02DBB191293E7A0803DB80</shop_id>
    <address>浙江省杭州市上城区清泰街</address>
    <latitude>30.245229879773</latitude>
    <longitude>120.18673911974</longitude>
    <campus>华家池</campus>
    <city>杭州</city>
  </location>
  <location>
    <deal_id></deal_id>
    <shop_id>153446CE9BE8156B</shop_id>
    <address>上城区南山路147号6号楼</address>
    <latitude>30.248056757627</latitude>
    <longitude>120.16001314965</longitude>
    <campus>华家池</campus>
    <city>杭州</city>
  </location>
  <location>
    <deal_id></deal_id>
    <shop_id>6DF2AD57E9252CBF9B7D5668A92CA529</shop_id>
    <address>上城区环城东路1号(西湖大道东首)  沪杭高铁 杭州站</address>
    <latitude>30.243398226274</latitude>
    <longitude>120.18280633626</longitude>
    <campus>华家池</campus>
    <city>杭州</city>
  </location>
  <location>
    <deal_id></deal_id>
    <shop_id>648D9CF2E8394521BC975D4DBA4901CE</shop_id>
    <address>杭州市朝晖七区12号</address>
    <latitude>30.285021618737</latitude>
    <longitude>120.16224774858</longitude>
    <campus>华家池</campus>
    <city>杭州</city>
  </location>
  <location>
    <deal_id></deal_id>
    <shop_id>27C6D90C2C25127CAD9B4CC413987396</shop_id>
    <address>浙江省杭州市江干区凤起东路</address>
    <latitude>30.26269757396</latitude>
    <longitude>120.20696084858</longitude>
    <campus>华家池</campus>
    <city>杭州</city>
  </location>
  <location>
    <deal_id></deal_id>
    <shop_id>EDEB68BEF821D2D8AC84833C302B9542</shop_id>
    <address>福建省泉州市泉秀路东段(中心站对面)</address>
    <latitude>24.907574</latitude>
    <longitude>118.586812</longitude>
    <campus>之江</campus>
    <city>泉州</city>
  </location>
  <location>
    <deal_id></deal_id>
    <shop_id>6DF2AD57E9252CBF9B7D5668A92CA529</shop_id>
    <address>上城区环城东路1号(西湖大道东首)  沪杭高铁 杭州站</address>
    <latitude>30.243398226274</latitude>
    <longitude>120.18280633626</longitude>
    <campus>华家池</campus>
    <city>杭州</city>
  </location>
  <location>
    <deal_id></deal_id>
    <shop_id>AC950B650CFBCF89</shop_id>
    <address>杭州萧山区育才北路518号</address>
    <latitude>30.18018913269</latitude>
    <longitude>120.27977752685</longitude>
    <campus>华家池</campus>
    <city>杭州</city>
  </location>
  <location>
    <deal_id></deal_id>
    <shop_id>464E53B8CE02DBB191293E7A0803DB80</shop_id>
    <address>浙江省杭州市上城区清泰街</address>
    <latitude>30.245229879773</latitude>
    <longitude>120.18673911974</longitude>
    <campus>华家池</campus>
    <city>杭州</city>
  </location>
  <location>
    <deal_id></deal_id>
    <shop_id>EEF45B2710B0499B</shop_id>
    <address>凤起路172号  </address>
    <latitude>30.264499664307</latitude>
    <longitude>120.17474365234</longitude>
    <campus>华家池</campus>
    <city>杭州</city>
  </location>
  <location>
    <deal_id></deal_id>
    <shop_id>6DF2AD57E9252CBF9B7D5668A92CA529</shop_id>
    <address>上城区环城东路1号(西湖大道东首)  沪杭高铁 杭州站</address>
    <latitude>30.243398226274</latitude>
    <longitude>120.18280633626</longitude>
    <campus>华家池</campus>
    <city>杭州</city>
  </location>
  <location>
    <deal_id></deal_id>
    <shop_id>464E53B8CE02DBB191293E7A0803DB80</shop_id>
    <address>浙江省杭州市上城区清泰街</address>
    <latitude>30.245229879773</latitude>
    <longitude>120.18673911974</longitude>
    <campus>华家池</campus>
    <city>杭州</city>
  </location>
  <location>
    <deal_id></deal_id>
    <shop_id>DBC55482A89F84B446517E21B017E4DF</shop_id>
    <address>浙江省杭州市上城区望江路215号</address>
    <latitude>30.239444738184</latitude>
    <longitude>120.17586311974</longitude>
    <campus>华家池</campus>
    <city>杭州</city>
  </location>
  <location>
    <deal_id></deal_id>
    <shop_id>ACCED48E309D990372B41309360D6750</shop_id>
    <address>江苏省南京市鼓楼区虎踞路57号</address>
    <latitude>32.046309785688</latitude>
    <longitude>118.7612456634</longitude>
    <campus>紫金港</campus>
    <city>南京</city>
  </location>
  <location>
    <deal_id></deal_id>
    <shop_id>88029008B8DD39BD50B66F8A8F98A6AC</shop_id>
    <address>汾口外景</address>
    <latitude>29.434540117892</latitude>
    <longitude>118.54550401528</longitude>
    <campus>之江</campus>
    <city>杭州</city>
  </location>
  <location>
    <deal_id></deal_id>
    <shop_id>464E53B8CE02DBB191293E7A0803DB80</shop_id>
    <address>浙江省杭州市上城区清泰街</address>
    <latitude>30.245229879773</latitude>
    <longitude>120.18673911974</longitude>
    <campus>华家池</campus>
    <city>杭州</city>
  </location>
  <location>
    <deal_id></deal_id>
    <shop_id>845A50131F2BFC</shop_id>
    <address>池州市</address>
    <latitude>30.277765032689</latitude>
    <longitude>117.41980336242</longitude>
    <campus>紫金港</campus>
    <city>池州</city>
  </location>
  <location>
    <deal_id></deal_id>
    <shop_id>70E54EA9EF2A99387EE95F7EE4AAF2B0</shop_id>
    <address>浙江省杭州市浣纱路</address>
    <latitude>30.250506276607</latitude>
    <longitude>120.17137884858</longitude>
    <campus>华家池</campus>
    <city>杭州</city>
  </location>
  <location>
    <deal_id></deal_id>
    <shop_id>70E54EA9EF2A99387EE95F7EE4AAF2B0</shop_id>
    <address>浙江省杭州市浣纱路</address>
    <latitude>30.250506276607</latitude>
    <longitude>120.17137884858</longitude>
    <campus>华家池</campus>
    <city>杭州</city>
  </location>
  <location>
    <deal_id></deal_id>
    <shop_id>20AC0FB0E7B05AE39D6DA2436160EB59</shop_id>
    <address>山东省泰安市肥城市龙山路20号</address>
    <latitude>36.180805979606</latitude>
    <longitude>116.77401227451</longitude>
    <campus>紫金港</campus>
    <city>济南</city>
  </location>
  <location>
    <deal_id></deal_id>
    <shop_id>EEF45B2710B0499B</shop_id>
    <address>凤起路172号  </address>
    <latitude>30.264499664307</latitude>
    <longitude>120.17474365234</longitude>
    <campus>华家池</campus>
    <city>杭州</city>
  </location>
  <location>
    <deal_id></deal_id>
    <shop_id>414B7A6E2E5A2D2B5225D6EF917743CB</shop_id>
    <address>浙江省杭州市武林路桃花河弄5号(武林药房对面)</address>
    <latitude>30.26882572347</latitude>
    <longitude>120.15807284858</longitude>
    <campus>西溪</campus>
    <city>杭州</city>
  </location>
  <location>
    <deal_id></deal_id>
    <shop_id>464E53B8CE02DBB191293E7A0803DB80</shop_id>
    <address>浙江省杭州市上城区清泰街</address>
    <latitude>30.245229879773</latitude>
    <longitude>120.18673911974</longitude>
    <campus>华家池</campus>
    <city>杭州</city>
  </location>
  <location>
    <deal_id></deal_id>
    <shop_id>A53AFED342EF21E1</shop_id>
    <address>江干区五福村北区10幢2号  </address>
    <latitude>30.261680603027</latitude>
    <longitude>120.21125030518</longitude>
    <campus>华家池</campus>
    <city>杭州</city>
  </location>
  <location>
    <deal_id></deal_id>
    <shop_id>A78E904AA963D0158E2A6BF2FC0036CD</shop_id>
    <address>静安区南京西路580号近成都路</address>
    <latitude>31.231685291099</latitude>
    <longitude>121.46695148813</longitude>
    <campus>华家池</campus>
    <city>上海</city>
  </location>
  <location>
    <deal_id></deal_id>
    <shop_id>605FF8F7A9D816</shop_id>
    <address>望江东路333号</address>
    <latitude>30.228047459314</latitude>
    <longitude>120.19130911974</longitude>
    <campus>华家池</campus>
    <city>杭州</city>
  </location>
  <location>
    <deal_id></deal_id>
    <shop_id>6DAF7FE818E997</shop_id>
    <address>杭州市下城区凤起路247号</address>
    <latitude>30.263213286541</latitude>
    <longitude>120.17400074858</longitude>
    <campus>华家池</campus>
    <city>杭州</city>
  </location>
  <location>
    <deal_id></deal_id>
    <shop_id>188062BF4BD677D4</shop_id>
    <address>上海普陀区武宁路2255号</address>
    <latitude>31.24498</latitude>
    <longitude>121.39717</longitude>
    <campus>华家池</campus>
    <city>上海</city>
  </location>
  <location>
    <deal_id></deal_id>
    <shop_id>BD680D4D0D0ED38E</shop_id>
    <address>定淮门大街  </address>
    <latitude>32.061931610107</latitude>
    <longitude>118.73629760742</longitude>
    <campus>紫金港</campus>
    <city>南京</city>
  </location>
  <location>
    <deal_id></deal_id>
    <shop_id>954A7BA594D306832799A1DCB3D7E7FD</shop_id>
    <address>余杭良渚文化村</address>
    <latitude>30.382076</latitude>
    <longitude>120.060718</longitude>
    <campus>紫金港</campus>
    <city>杭州</city>
  </location>
</locations>
